{"version": 0.6, "generator": "Overpass API 0.7.62.8 e802775f", "osm3s": {"timestamp_osm_base": "2025-09-05T07:04:55Z", "copyright": "The data included in this document is from www.openstreetmap.org. The data is made available under ODbL."}, "elements": [{"type": "node", "id": 26860287, "lat": 50.0155172, "lon": 19.9245287, "tags": {"caravans": "yes", "email": "nolcegi@krakowianka.com.pl; hotel@krakowianka.com.pl; hotel@krakowianka.info", "fax": "+48 12 268 14 17", "internet_access": "wlan", "internet_access:fee": "no", "name": "Krakowianka", "operator": "O\u015brodek Turystyki Sportu i Rekreacji \"Krakowianka\"", "phone": "+48 12 268 11 35; +48 12 268 14 17", "ref:pfcc": "171", "stars": "1", "tents": "yes", "tourism": "camp_site", "website": "https://www.krakowianka.info/"}}, {"type": "node", "id": 256623441, "lat": 50.0634912, "lon": 19.9414953, "tags": {"name": "Hotel Pollera", "stars": "2", "tourism": "hotel", "wikidata": "Q9294114", "wikipedia": "pl:Hotel Pollera w Krakowie"}}, {"type": "node", "id": 273723508, "lat": 50.0572207, "lon": 19.9380491}, {"type": "node", "id": 274260907, "lat": 50.0648199, "lon": 19.9406828}, {"type": "node", "id": 394563597, "lat": 50.0942213, "lon": 19.9418397}, {"type": "node", "id": 394564391, "lat": 50.0954247, "lon": 19.9411428}, {"type": "node", "id": 394564392, "lat": 50.0946592, "lon": 19.9405167}, {"type": "node", "id": 448013443, "lat": 50.0571873, "lon": 19.942163, "tags": {"addr:city": "Krak\u00f3w", "addr:housenumber": "10", "addr:postcode": "31-047", "addr:street": "J\u00f3zefa Sarego", "guest_house": "hostel", "internet_access": "wlan", "name": "Mundo", "tourism": "hostel", "wikidata": "Q111137577"}}, {"type": "node", "id": 448855054, "lat": 50.0606452, "lon": 19.9370985, "tags": {"contact:city": "Krak\u00f3w", "contact:housenumber": "18", "contact:street": "Rynek G\u0142\u00f3wny", "name": "Cracow", "tourism": "hostel"}}, {"type": "node", "id": 475387296, "lat": 50.063155, "lon": 19.9366497, "tags": {"addr:city": "Krak\u00f3w", "addr:country": "PL", "addr:housenumber": "3", "addr:street": "Szczepa\u0144ska", "name": "Szczepa\u0144ska Apartments", "tourism": "hostel"}}, {"type": "node", "id": 475387303, "lat": 50.0631806, "lon": 19.9365572, "tags": {"addr:city": "Krak\u00f3w", "addr:country": "PL", "addr:housenumber": "5", "addr:street": "Szczepa\u0144ska", "check_date": "2022-09-18", "name": "Hotel Stary", "phone": "+48 12 384 08 08", "tourism": "hotel", "website": "https://stary.hotel.com.pl", "wikidata": "Q111401069"}}, {"type": "node", "id": 475613591, "lat": 50.0607812, "lon": 19.936909, "tags": {"addr:city": "Krak\u00f3w", "addr:country": "PL", "addr:housenumber": "19", "addr:street": "Rynek G\u0142\u00f3wny", "name": "Hotel Wentzl", "stars": "4", "tourism": "hotel", "website": "https://wentzl.pl", "wikidata": "Q111401075"}}, {"type": "node", "id": 475613647, "lat": 50.0607355, "lon": 19.9381497, "tags": {"addr:city": "Krak\u00f3w", "addr:country": "PL", "addr:housenumber": "9", "addr:street": "Rynek G\u0142\u00f3wny", "name": "Renesans", "tourism": "hostel"}}, {"type": "node", "id": 486819097, "lat": 50.0560182, "lon": 19.9284264, "tags": {"addr:city": "Krak\u00f3w", "addr:housenumber": "1", "addr:postcode": "31-106", "addr:street": "Plac Juliusza Kossaka", "name": "Hotel Kossak", "tourism": "hotel", "website": "https://hotelkossak.pl/", "wikidata": "Q111401088"}}, {"type": "node", "id": 488257852, "lat": 50.0622644, "lon": 19.9352097, "tags": {"check_date": "2025-08-24", "contact:city": "Krak\u00f3w", "contact:country": "PL", "contact:housenumber": "4", "contact:street": "Szewska", "name": "Hostel Flamingo", "tourism": "hostel"}}, {"type": "node", "id": 488258023, "lat": 50.0628486, "lon": 19.9338577, "tags": {"addr:housenumber": "22", "addr:street": "Szewska", "check_date": "2023-06-04", "internet_access": "wlan", "internet_access:fee": "customers", "name": "Szewska 22 Boutique", "tourism": "hostel", "website": "https://szewska22.pl/", "wheelchair": "no"}}, {"type": "node", "id": 490986139, "lat": 50.0633379, "lon": 19.9374505, "tags": {"addr:city": "Krak\u00f3w", "addr:country": "PL", "addr:housenumber": "3", "addr:postcode": "31-014", "addr:street": "S\u0142awkowska", "brand": "Curio Collection", "brand:wikidata": "Q19903229", "building": "yes", "contact:facebook": "https://www.facebook.com/HotelSaskiKrakow", "contact:instagram": "https://www.instagram.com/saski_krakow_curio_collection/", "contact:linkedin": "https://www.linkedin.com/company/hotel-saski-krakow-curio-collection-by-hilton/", "email": "krksh_res@hilton.com", "internet_access": "yes", "internet_access:fee": "no", "name": "Hotel Saski Krakow, Curio Collection by Hilton", "operator": "Hilton", "phone": "+48 12 333 42 70", "rooms": "117", "stars": "5", "tourism": "hotel", "website": "https://www.hilton.com/en/hotels/krkshqq-hotel-saski-krakow", "wheelchair": "yes"}}, {"type": "node", "id": 490986166, "lat": 50.0636094, "lon": 19.9377729, "tags": {"check_date": "2024-08-03", "name": "Grand Hotel", "stars": "5", "tourism": "hotel", "wikidata": "Q111401068"}}, {"type": "node", "id": 490986261, "lat": 50.0644894, "lon": 19.9413743, "tags": {"internet_access": "wlan", "name": "Brama", "tourism": "hostel"}}, {"type": "node", "id": 490986334, "lat": 50.0633754, "lon": 19.940547, "tags": {"addr:city": "Krak\u00f3w", "addr:housenumber": "29", "addr:postcode": "31-019", "addr:street": "Floria\u0144ska", "name": "Tutti Frutti", "tourism": "hostel", "website": "http://tuttifruttihostel.com"}}, {"type": "node", "id": 490986390, "lat": 50.0630042, "lon": 19.9397311, "tags": {"addr:city": "Krak\u00f3w", "addr:housenumber": "14", "addr:postcode": "31-021", "addr:street": "Floria\u0144ska", "alt_name": "Hotel Pod R\u00f3\u017c\u0105", "name": "Pod R\u00f3\u017c\u0105", "tourism": "hotel", "wikidata": "Q111401070"}}, {"type": "node", "id": 490986403, "lat": 50.062659, "lon": 19.9393575, "tags": {"name": "Hostel Residence Floria\u0144ska", "tourism": "hostel"}}, {"type": "node", "id": 490986497, "lat": 50.0653275, "lon": 19.9373153, "tags": {"name": "Agava Guest Rooms", "tourism": "hostel"}}, {"type": "node", "id": 699690064, "lat": 50.0631939, "lon": 19.9412087, "tags": {"addr:city": "Krak\u00f3w", "addr:housenumber": "28", "addr:postcode": "31-024", "addr:street": "Szpitalna", "name": "Elektor", "stars": "3", "tourism": "hotel", "website": "https://www.hotelelektor.com/", "wikidata": "Q111859010"}}, {"type": "node", "id": 699690067, "lat": 50.0636034, "lon": 19.9407569, "tags": {"addr:city": "Krak\u00f3w", "addr:housenumber": "20", "addr:street": "\u015awi\u0119tego Marka", "name": "Unicus Hotel", "stars": "4", "tourism": "hotel"}}, {"type": "node", "id": 752177385, "lat": 50.0640869, "lon": 19.9288994, "tags": {"name": "Logos", "phone": "+48126316200", "stars": "3", "tourism": "hotel", "website": "https://hotel-logos.pl/", "wikidata": "Q111859005"}}, {"type": "node", "id": 765918905, "lat": 50.0728378, "lon": 19.9306207, "tags": {"name": "Delta Hotel", "tourism": "hotel", "wikidata": "Q111858988"}}, {"type": "node", "id": 879345588, "lat": 50.0657279, "lon": 19.9454577}, {"type": "node", "id": 879345591, "lat": 50.065594, "lon": 19.945549}, {"type": "node", "id": 879345607, "lat": 50.0655967, "lon": 19.9454496}, {"type": "node", "id": 879345619, "lat": 50.0657294, "lon": 19.94563}, {"type": "node", "id": 931816362, "lat": 50.0661278, "lon": 20.0182422, "tags": {"addr:city": "Krak\u00f3w", "addr:housenumber": "25B", "addr:street": "So\u0142tysowska", "internet_access": "yes", "internet_access:fee": "yes", "name": "Orient", "operator": "Turystyczna Sie\u0107 Marze\u0144 \u2013 Grupa Geovita", "stars": "4", "tourism": "hotel"}}, {"type": "node", "id": 940929237, "lat": 50.0501991, "lon": 19.9903488, "tags": {"addr:city": "Krak\u00f3w", "addr:housenumber": "33", "addr:street": "Koszykarska", "name": "Unibase prywatny akademik", "operator": "NNS sp. z o.o.", "tourism": "hotel", "website": "https://www.turystyka-krakus.com.pl/"}}, {"type": "node", "id": 950393276, "lat": 50.0531081, "lon": 19.9456493, "tags": {"name": "Momotown", "tourism": "hostel"}}, {"type": "node", "id": 966737143, "lat": 50.079709, "lon": 20.0188625, "tags": {"addr:city": "Krak\u00f3w", "addr:country": "PL", "addr:housenumber": "1-2", "addr:place": "Osiedle Alberty\u0144skie", "contact:phone": "+48 12 6482004", "contact:website": "http://www.indigosystem.pl/", "internet_access": "wlan", "internet_access:fee": "no", "name": "Dom Turystyczny Indigo", "stars": "1", "tourism": "hotel"}}, {"type": "node", "id": 974053969, "lat": 50.0079511, "lon": 20.0181909}, {"type": "node", "id": 974054020, "lat": 50.0081256, "lon": 20.0182533}, {"type": "node", "id": 974054050, "lat": 50.007979, "lon": 20.01773}, {"type": "node", "id": 974054096, "lat": 50.0081122, "lon": 20.0177203}, {"type": "node", "id": 993970944, "lat": 50.0476513, "lon": 19.9525373}, {"type": "node", "id": 993970954, "lat": 50.048065, "lon": 19.9531151}, {"type": "node", "id": 993970957, "lat": 50.0477771, "lon": 19.9534843}, {"type": "node", "id": 993970980, "lat": 50.0479929, "lon": 19.9530549}, {"type": "node", "id": 993971000, "lat": 50.047629, "lon": 19.9524536}, {"type": "node", "id": 993971015, "lat": 50.0477719, "lon": 19.9530023}, {"type": "node", "id": 993971035, "lat": 50.0478597, "lon": 19.9524628}, {"type": "node", "id": 993971039, "lat": 50.048155, "lon": 19.9531607}, {"type": "node", "id": 993971054, "lat": 50.0475483, "lon": 19.9525424}, {"type": "node", "id": 993971063, "lat": 50.0478907, "lon": 19.9529292}, {"type": "node", "id": 993971065, "lat": 50.0478808, "lon": 19.9534127}, {"type": "node", "id": 993971066, "lat": 50.0477886, "lon": 19.9525703, "tags": {"access": "permissive", "amenity": "parking_entrance", "parking": "underground"}}, {"type": "node", "id": 994366882, "lat": 50.0657498, "lon": 19.9447995, "tags": {"addr:city": "Krak\u00f3w", "addr:country": "PL", "addr:housenumber": "12/7", "addr:postcode": "31-154", "addr:street": "Pawia", "email": "info@gregtomhostel.com", "name": "Greg & Tom Hostel", "phone": "+48 124224100", "tourism": "hostel"}}, {"type": "node", "id": 1171322447, "lat": 50.0938768, "lon": 20.0323638, "tags": {"addr:city": "Krak\u00f3w", "addr:country": "PL", "addr:housenumber": "3A", "addr:postcode": "31-752", "addr:street": "Zak\u0142adowa", "email": "info@zajazd-szlachecki.pl", "fax": "+48126842304", "internet_access": "wlan", "name": "Zajazd Szlachecki", "phone": "+48126842281", "tourism": "hotel", "website": "http://www.zajazd-szlachecki.pl"}}, {"type": "node", "id": 1231001943, "lat": 50.0207298, "lon": 19.9867454, "tags": {"email": "biuro@hotelprokocim.pl", "name": "Prokocim", "phone": "(12) 658 57 83", "tourism": "hotel", "website": "http://www.hotelprokocim.pl"}}, {"type": "node", "id": 1276697002, "lat": 50.0909227, "lon": 19.9148259}, {"type": "node", "id": 1276697004, "lat": 50.0912942, "lon": 19.9147068}, {"type": "node", "id": 1276697027, "lat": 50.091068, "lon": 19.9136776}, {"type": "node", "id": 1276697035, "lat": 50.0912669, "lon": 19.9149145}, {"type": "node", "id": 1308904278, "lat": 50.0799122, "lon": 19.8710811, "tags": {"addr:city": "Krak\u00f3w", "addr:housenumber": "22", "addr:postcode": "30-148", "addr:street": "Samuela Bogumi\u0142a Lindego", "brand": "Sadyba-Talo", "name": "Dom noclegowy", "tourism": "hotel", "website": "https://sadyba.net.pl/noclegi-w-krakowie.html"}}, {"type": "node", "id": 1325894848, "lat": 50.0652058, "lon": 19.9448223, "tags": {"name": "Hotel Warszawski", "tourism": "hotel"}}, {"type": "node", "id": 1372010798, "lat": 50.0694827, "lon": 19.9302025}, {"type": "node", "id": 1372010805, "lat": 50.06943, "lon": 19.9303811}, {"type": "node", "id": 1372010807, "lat": 50.0692821, "lon": 19.9305486}, {"type": "node", "id": 1372010816, "lat": 50.0694369, "lon": 19.9304682}, {"type": "node", "id": 1372010844, "lat": 50.0692558, "lon": 19.9302128}, {"type": "node", "id": 1372010860, "lat": 50.0696005, "lon": 19.9284557}, {"type": "node", "id": 1372010863, "lat": 50.0693876, "lon": 19.9303984}, {"type": "node", "id": 1372010866, "lat": 50.0694842, "lon": 19.9302872}, {"type": "node", "id": 1372010876, "lat": 50.0693855, "lon": 19.9302914}, {"type": "node", "id": 1372010893, "lat": 50.0697904, "lon": 19.9284897}, {"type": "node", "id": 1372010924, "lat": 50.0697371, "lon": 19.9285472}, {"type": "node", "id": 1372010928, "lat": 50.0698467, "lon": 19.9287761}, {"type": "node", "id": 1372010933, "lat": 50.0698979, "lon": 19.9287195}, {"type": "node", "id": 1372010947, "lat": 50.0697128, "lon": 19.9283278}, {"type": "node", "id": 1372010948, "lat": 50.0696792, "lon": 19.9286134}, {"type": "node", "id": 1387710876, "lat": 50.0557868, "lon": 19.9379976}, {"type": "node", "id": 1387710998, "lat": 50.0557719, "lon": 19.9381686}, {"type": "node", "id": 1387752471, "lat": 50.0572039, "lon": 19.9378156}, {"type": "node", "id": 1387769462, "lat": 50.0545092, "lon": 19.9393285, "tags": {"addr:housenumber": "26", "addr:postcode": "31-048", "addr:street": "\u015awi\u0119tej Gertrudy", "beds": "137", "email": "royal@amwhotele.pl", "internet_access": "wlan", "internet_access:fee": "no", "name": "Royal", "operator": "AMW Hotele", "phone": "+48 12 421 35 00", "rooms": "63", "stars": "3", "tourism": "hotel", "website": "http://www.hotelewam.pl/510-hotel-royal-krakow.html", "wheelchair": "no", "wikidata": "Q11710152", "wikipedia": "pl:Hotel Royal w Krakowie"}}, {"type": "node", "id": 1416965532, "lat": 50.0704933, "lon": 20.0396583, "tags": {"addr:city": "Krak\u00f3w", "addr:country": "PL", "addr:housenumber": "12", "addr:place": "Osiedle Centrum E", "addr:postcode": "31-934", "email": "hotel@hotel-centrum.pl", "internet_access": "wlan", "internet_access:fee": "yes", "name": "Hotel Centrum", "stars": "4", "tourism": "hotel", "website": "https://www.hotel-centrum.pl/"}}, {"type": "node", "id": 1417926838, "lat": 50.0438991, "lon": 19.9839022}, {"type": "node", "id": 1420852368, "lat": 50.081052, "lon": 20.0481564}, {"type": "node", "id": 1427542421, "lat": 50.0324916, "lon": 19.9207859, "tags": {"addr:city": "Krak\u00f3w", "addr:country": "PL", "addr:housenumber": "47", "addr:postcode": "30-363", "addr:street": "Kobierzy\u0144ska", "name": "Sympozjum", "stars": "4", "tourism": "hotel", "website": "http://www.sympozjum.com.pl/"}}, {"type": "node", "id": 1454229555, "lat": 50.0437449, "lon": 19.9843022}, {"type": "node", "id": 1454229566, "lat": 50.043896, "lon": 19.9839479}, {"type": "node", "id": 1454229572, "lat": 50.0438746, "lon": 19.9843221}, {"type": "node", "id": 1454229580, "lat": 50.0441578, "lon": 19.9841196}, {"type": "node", "id": 1454229584, "lat": 50.044169, "lon": 19.983944}, {"type": "node", "id": 1467569875, "lat": 50.0986237, "lon": 20.0917826, "tags": {"addr:city": "Krak\u00f3w", "addr:housenumber": "21", "addr:postcode": "31-766", "addr:street": "\u0141uczanowicka", "internet_access": "yes", "name": "Dworek Krakowski", "phone": "+48 501 047 227", "tourism": "hotel", "website": "http://www.dworek-krakowski.com.pl/"}}, {"type": "node", "id": 1480547349, "lat": 50.0450616, "lon": 19.9502239, "tags": {"name": "Patria", "tourism": "hostel"}}, {"type": "node", "id": 1513451174, "lat": 50.0629326, "lon": 19.9431919, "tags": {"addr:street": "\u015awi\u0119tego Krzy\u017ca", "check_date": "2025-06-08", "name": "Hotel Teatr", "tourism": "hotel"}}, {"type": "node", "id": 1514597730, "lat": 50.0619244, "lon": 19.9431644, "tags": {"addr:city": "Krak\u00f3w", "addr:country": "PL", "addr:housenumber": "34", "addr:postcode": "31-027", "addr:street": "\u015awi\u0119tego Tomasza", "capacity": "106 rooms", "check_date": "2025-06-13", "internet_access": "wlan", "internet_access:fee": "no", "name": "Hotel Campanile", "operator": "Louvre Hotels", "stars": "2", "tourism": "hotel", "website": "http://www.campanile-cracovie.pl/"}}, {"type": "node", "id": 1514597740, "lat": 50.0620213, "lon": 19.9427845, "tags": {"addr:city": "Krak\u00f3w", "addr:country": "PL", "addr:housenumber": "32", "addr:postcode": "31-027", "addr:street": "\u015awi\u0119tego Tomasza", "capacity": "73 beds", "email": "hotel@hotel-classic.pl", "internet_access": "wlan", "internet_access:fee": "no", "name": "Hotel Classic", "stars": "3", "tourism": "hotel", "website": "http://www.hotel-classic.pl/"}}, {"type": "node", "id": 1515515889, "lat": 50.061459, "lon": 19.9420205}, {"type": "node", "id": 1515515894, "lat": 50.0614935, "lon": 19.9423704}, {"type": "node", "id": 1515515905, "lat": 50.06164, "lon": 19.9424092}, {"type": "node", "id": 1515515906, "lat": 50.0616701, "lon": 19.9423278}, {"type": "node", "id": 1515515910, "lat": 50.0616948, "lon": 19.9421709}, {"type": "node", "id": 1516614723, "lat": 50.0608236, "lon": 19.94239}, {"type": "node", "id": 1516614727, "lat": 50.0608758, "lon": 19.942283}, {"type": "node", "id": 1516614730, "lat": 50.0609187, "lon": 19.9423352}, {"type": "node", "id": 1516614755, "lat": 50.0609261, "lon": 19.9424981}, {"type": "node", "id": 1516614787, "lat": 50.0610265, "lon": 19.9421359}, {"type": "node", "id": 1516614830, "lat": 50.0610845, "lon": 19.9422091}, {"type": "node", "id": 1516840255, "lat": 50.0562705, "lon": 19.9375835, "tags": {"addr:city": "Krak\u00f3w", "addr:country": "PL", "addr:housenumber": "16", "addr:street": "Kanonicza", "internet_access": "wlan", "internet_access:fee": "no", "name": "Hotel Copernicus", "name:de": "Copernicushotel", "name:pl": "Hotel Copernicus", "tourism": "hotel", "wikidata": "Q9294055", "wikipedia": "pl:Kamienica Pod Motylem w Krakowie"}}, {"type": "node", "id": 1518864533, "lat": 50.0622546, "lon": 19.9396822, "tags": {"addr:street": "Floria\u0144ska", "name": "Hostel Gardenhouse", "tourism": "hostel"}}, {"type": "node", "id": 1528700075, "lat": 50.0649813, "lon": 19.9327354}, {"type": "node", "id": 1528700098, "lat": 50.0654903, "lon": 19.9337352}, {"type": "node", "id": 1528700100, "lat": 50.065109, "lon": 19.933062}, {"type": "node", "id": 1528700107, "lat": 50.0651985, "lon": 19.9329754}, {"type": "node", "id": 1528700138, "lat": 50.0654339, "lon": 19.9335312}, {"type": "node", "id": 1528700161, "lat": 50.0653805, "lon": 19.9338123}, {"type": "node", "id": 1528700171, "lat": 50.0650734, "lon": 19.9326459}, {"type": "node", "id": 1528700265, "lat": 50.0653207, "lon": 19.9336284}, {"type": "node", "id": 1574636475, "lat": 50.0572661, "lon": 19.9301218}, {"type": "node", "id": 1574636487, "lat": 50.0571738, "lon": 19.9297857}, {"type": "node", "id": 1574636518, "lat": 50.057349, "lon": 19.9299717}, {"type": "node", "id": 1574636530, "lat": 50.0571053, "lon": 19.929929}, {"type": "node", "id": 1647318911, "lat": 50.0498901, "lon": 19.9439429}, {"type": "node", "id": 1647318914, "lat": 50.0499269, "lon": 19.9441541}, {"type": "node", "id": 1647417787, "lat": 50.0494003, "lon": 19.9431452}, {"type": "node", "id": 1647417855, "lat": 50.0495774, "lon": 19.9440421}, {"type": "node", "id": 1647417878, "lat": 50.0496162, "lon": 19.944289}, {"type": "node", "id": 1647615680, "lat": 50.0509193, "lon": 19.9455568}, {"type": "node", "id": 1649337098, "lat": 50.0520657, "lon": 19.9435269}, {"type": "node", "id": 1649337136, "lat": 50.0521483, "lon": 19.9433895}, {"type": "node", "id": 1651299959, "lat": 50.0594209, "lon": 19.9436043}, {"type": "node", "id": 1651300084, "lat": 50.0605028, "lon": 19.9453143}, {"type": "node", "id": 1651300121, "lat": 50.0611433, "lon": 19.9449942}, {"type": "node", "id": 1651300122, "lat": 50.0611478, "lon": 19.9453782}, {"type": "node", "id": 1651300123, "lat": 50.0612769, "lon": 19.9450042}, {"type": "node", "id": 1651300124, "lat": 50.0612816, "lon": 19.945379}, {"type": "node", "id": 1651578534, "lat": 50.0616267, "lon": 19.9451061}, {"type": "node", "id": 1651578544, "lat": 50.0616926, "lon": 19.9451251}, {"type": "node", "id": 1651588748, "lat": 50.0638331, "lon": 19.9473056}, {"type": "node", "id": 1651642737, "lat": 50.0637566, "lon": 19.9471577}, {"type": "node", "id": 1651642791, "lat": 50.0638157, "lon": 19.9471331}, {"type": "node", "id": 1654597507, "lat": 50.0673896, "lon": 19.9439407}, {"type": "node", "id": 1654597508, "lat": 50.067389, "lon": 19.9444623}, {"type": "node", "id": 1654597631, "lat": 50.0674905, "lon": 19.9444859}, {"type": "node", "id": 1654597653, "lat": 50.0674878, "lon": 19.9439611}, {"type": "node", "id": 1654598697, "lat": 50.0706673, "lon": 19.9452995}, {"type": "node", "id": 1654598713, "lat": 50.0706691, "lon": 19.9463861}, {"type": "node", "id": 1654598765, "lat": 50.070784, "lon": 19.9461973}, {"type": "node", "id": 1654598766, "lat": 50.0708064, "lon": 19.9457027}, {"type": "node", "id": 1654598796, "lat": 50.0708686, "lon": 19.9452678}, {"type": "node", "id": 1654598803, "lat": 50.0708894, "lon": 19.945601}, {"type": "node", "id": 1654598820, "lat": 50.0709408, "lon": 19.9461888}, {"type": "node", "id": 1654598830, "lat": 50.0709442, "lon": 19.9463733}, {"type": "node", "id": 1655087851, "lat": 50.0574188, "lon": 19.9331852}, {"type": "node", "id": 1655087915, "lat": 50.0575085, "lon": 19.933676}, {"type": "node", "id": 1655087924, "lat": 50.0575083, "lon": 19.9331469}, {"type": "node", "id": 1655087980, "lat": 50.0575989, "lon": 19.9336314}, {"type": "node", "id": 1655088134, "lat": 50.0579355, "lon": 19.9329848}, {"type": "node", "id": 1655088161, "lat": 50.0580947, "lon": 19.9333976}, {"type": "node", "id": 1655088168, "lat": 50.0581494, "lon": 19.9329931}, {"type": "node", "id": 1655088174, "lat": 50.0581789, "lon": 19.9331266}, {"type": "node", "id": 1655088177, "lat": 50.0581816, "lon": 19.9328232}, {"type": "node", "id": 1655088186, "lat": 50.058294, "lon": 19.9327615}, {"type": "node", "id": 1655088187, "lat": 50.0583665, "lon": 19.9328811}, {"type": "node", "id": 1655088188, "lat": 50.0583956, "lon": 19.9330082}, {"type": "node", "id": 1655088189, "lat": 50.0584333, "lon": 19.9326322}, {"type": "node", "id": 1655088198, "lat": 50.0585677, "lon": 19.9331702}, {"type": "node", "id": 1655088200, "lat": 50.0585801, "lon": 19.9331296}, {"type": "node", "id": 1655757943, "lat": 50.067012, "lon": 19.9389588}, {"type": "node", "id": 1655757946, "lat": 50.0670203, "lon": 19.9391795}, {"type": "node", "id": 1655758005, "lat": 50.0671582, "lon": 19.9389055}, {"type": "node", "id": 1655758015, "lat": 50.0671684, "lon": 19.9390932}, {"type": "node", "id": 1657847540, "lat": 50.0643557, "lon": 19.9408924}, {"type": "node", "id": 1657847564, "lat": 50.0644404, "lon": 19.9405937}, {"type": "node", "id": 1657847570, "lat": 50.0644497, "lon": 19.9409583}, {"type": "node", "id": 1657847588, "lat": 50.0644809, "lon": 19.9408199}, {"type": "node", "id": 1657847592, "lat": 50.0644955, "lon": 19.9407559}, {"type": "node", "id": 1657847600, "lat": 50.0645209, "lon": 19.9406437}, {"type": "node", "id": 1657847650, "lat": 50.0646367, "lon": 19.940444}, {"type": "node", "id": 1657847660, "lat": 50.064647, "lon": 19.9403436}, {"type": "node", "id": 1657847679, "lat": 50.064662, "lon": 19.9404481}, {"type": "node", "id": 1657847684, "lat": 50.0646755, "lon": 19.9406034}, {"type": "node", "id": 1657847687, "lat": 50.0646782, "lon": 19.9407749}, {"type": "node", "id": 1657847697, "lat": 50.064687, "lon": 19.9403597}, {"type": "node", "id": 1657847766, "lat": 50.0648073, "lon": 19.9405324}, {"type": "node", "id": 1657847771, "lat": 50.0648102, "lon": 19.9408165}, {"type": "node", "id": 1667829294, "lat": 50.0497781, "lon": 19.9433136}, {"type": "node", "id": 1680967859, "lat": 50.0888136, "lon": 19.9124007, "tags": {"capacity": "45 rooms; 82 beds", "email": "krakow@majorhotel.pl", "internet_access": "wlan", "internet_access:fee": "no", "name": "Hotel Major", "stars": "3", "tourism": "hotel", "website": "https://www.majorhotel.pl/", "wheelchair": "yes", "wikidata": "Q112000952"}}, {"type": "node", "id": 1682495045, "lat": 50.0911329, "lon": 19.9143456}, {"type": "node", "id": 1682495046, "lat": 50.0912021, "lon": 19.9137189}, {"type": "node", "id": 1682495055, "lat": 50.0914244, "lon": 19.9137861}, {"type": "node", "id": 1701345678, "lat": 50.0674799, "lon": 19.9159177}, {"type": "node", "id": 1723923324, "lat": 49.9932914, "lon": 19.935671}, {"type": "node", "id": 1730364918, "lat": 50.0434306, "lon": 19.9524964}, {"type": "node", "id": 1730364936, "lat": 50.043552, "lon": 19.9524964}, {"type": "node", "id": 1730583002, "lat": 50.0476402, "lon": 19.9297266}, {"type": "node", "id": 1738597611, "lat": 50.0881324, "lon": 20.0281154, "tags": {"addr:city": "Krak\u00f3w", "addr:country": "PL", "addr:housenumber": "15", "addr:place": "Osiedle Z\u0142otej Jesieni", "addr:postcode": "31-828", "capacity": "260 beds", "internet_access": "wlan", "name": "Hotel Felix", "stars": "2", "tourism": "hotel", "website": "https://www.hotelfelix.pl/"}}, {"type": "node", "id": 1738597614, "lat": 50.0906773, "lon": 20.0265916, "tags": {"addr:city": "Krak\u00f3w", "addr:country": "PL", "addr:housenumber": "12", "addr:place": "Osiedle Z\u0142otej Jesieni", "addr:postcode": "31-827", "beds": "100", "internet_access": "wlan", "internet_access:fee": "no", "name": "Hotel Grand Felix", "stars": "2", "tourism": "hotel", "website": "https://www.hotelfelix.pl/"}}, {"type": "node", "id": 1756599713, "lat": 50.0675307, "lon": 19.9420708}, {"type": "node", "id": 1756599716, "lat": 50.0675934, "lon": 19.9418486}, {"type": "node", "id": 1756599717, "lat": 50.0676282, "lon": 19.9418709}, {"type": "node", "id": 1756599718, "lat": 50.0676383, "lon": 19.9416975}, {"type": "node", "id": 1756599719, "lat": 50.0676592, "lon": 19.9421578}, {"type": "node", "id": 1756599720, "lat": 50.0677694, "lon": 19.9417858}, {"type": "node", "id": 1772724752, "lat": 50.0294085, "lon": 19.9255869, "tags": {"addr:city": "Krak\u00f3w", "addr:housenumber": "3", "addr:postcode": "30-349", "addr:street": "Wac\u0142awa Lipi\u0144skiego", "designation": "pracowniczy", "email": "biuro@hotel-panorama.pl", "name": "Panorama", "phone": "+48 122606401", "stars": "2", "toilets:wheelchair": "no", "tourism": "hotel", "website": "https://www.hotel-panorama.pl/", "wheelchair": "limited", "wikidata": "Q111119041"}}, {"type": "node", "id": 1784443558, "lat": 50.0256031, "lon": 19.9183297}, {"type": "node", "id": 1784443560, "lat": 50.0256123, "lon": 19.9185445}, {"type": "node", "id": 1784443590, "lat": 50.0257843, "lon": 19.9182287}, {"type": "node", "id": 1784443591, "lat": 50.0257868, "lon": 19.9182884}, {"type": "node", "id": 1784443592, "lat": 50.0257562, "lon": 19.9185303}, {"type": "node", "id": 1784443593, "lat": 50.0257593, "lon": 19.9186146}, {"type": "node", "id": 1784443614, "lat": 50.0259105, "lon": 19.9182135}, {"type": "node", "id": 1784443616, "lat": 50.0259261, "lon": 19.918597}, {"type": "node", "id": 1784596139, "lat": 50.0185873, "lon": 19.8015065, "tags": {"check_date": "2023-09-25", "name": "Dom Go\u015bci", "tourism": "hostel"}}, {"type": "node", "id": 1787495997, "lat": 50.0636312, "lon": 19.9471343}, {"type": "node", "id": 1787496006, "lat": 50.0636492, "lon": 19.9473374}, {"type": "node", "id": 1787496055, "lat": 50.0637518, "lon": 19.9471065}, {"type": "node", "id": 1801739418, "lat": 50.0627539, "lon": 20.0229119, "tags": {"addr:city": "Krak\u00f3w", "addr:country": "PL", "addr:housenumber": "37A", "addr:postcode": "31-589", "addr:street": "So\u0142tysowska", "contact:email": "rezerwacja@hostelrest.pl", "contact:mobile": "+48 513142410", "contact:phone": "+48 12 4259600", "contact:website": "http://www.hostelrest.pl/", "fax": "+48 12 2596021", "internet_access": "wlan", "internet_access:fee": "no", "name": "Hostel Rest", "operator": "Bed and Breakfest Rest", "tourism": "hostel", "website:operator": "http://bandbrest.pl/"}}, {"type": "node", "id": 1823230264, "lat": 50.0459136, "lon": 19.9537759, "tags": {"designation": "Hostel", "email": "office@stairway-hostel.pl", "name": "Hostel Stairway", "phone": "(12) 296-1006", "tourism": "hostel", "website": "http://www.stairway-hostel.pl/"}}, {"type": "node", "id": 1842838249, "lat": 50.0482231, "lon": 19.9531763}, {"type": "node", "id": 1864020162, "lat": 50.0639763, "lon": 19.9327241, "tags": {"addr:city": "Krak\u00f3w", "addr:country": "PL", "addr:housenumber": "5", "addr:street": "Karmelicka", "name": "Muzyczny Krak\u00f3w", "tourism": "hostel"}}, {"type": "node", "id": 1878175729, "lat": 50.0745068, "lon": 19.9176943, "tags": {"addr:city": "Krak\u00f3w", "addr:country": "PL", "addr:housenumber": "1", "addr:street": "Bytomska", "name": "Apart Hostel Nazar", "tourism": "hostel"}}, {"type": "node", "id": 1893499306, "lat": 50.0755234, "lon": 19.9320055, "tags": {"check_date": "2025-08-25", "name": "Liv Inn Aparthotel", "tourism": "hotel", "wheelchair": "no"}}, {"type": "node", "id": 1895299590, "lat": 50.0530081, "lon": 19.9493073}, {"type": "node", "id": 1895299597, "lat": 50.0530617, "lon": 19.9494299}, {"type": "node", "id": 1896497880, "lat": 50.050821, "lon": 19.9489592}, {"type": "node", "id": 1912738584, "lat": 50.0803467, "lon": 19.9616963, "tags": {"addr:city": "Krak\u00f3w", "addr:country": "PL", "addr:housenumber": "14b", "addr:postcode": "31-431", "addr:street": "Brogi", "contact:email": "sleepkrak@gmail.com", "contact:phone": "+48 601 484 919", "contact:website": "http://sleepkrak.pl", "name": "Sleep Krak", "tourism": "guest_house"}}, {"type": "node", "id": 1913419089, "lat": 50.0855921, "lon": 19.9476458, "tags": {"name": "B.A.S. VILLA RESIDENCE", "tourism": "hotel"}}, {"type": "node", "id": 1913933709, "lat": 50.0439486, "lon": 19.9461816, "tags": {"name": "Rubens", "tourism": "guest_house"}}, {"type": "node", "id": 1914389466, "lat": 50.0700497, "lon": 19.8995874, "tags": {"name": "Za Kolumnami", "tourism": "hostel"}}, {"type": "node", "id": 1914389483, "lat": 50.0698293, "lon": 19.8988337, "tags": {"check_date": "2024-05-19", "name": "Krakowiak", "tourism": "hostel"}}, {"type": "node", "id": 1917767786, "lat": 50.070331, "lon": 19.9355391, "tags": {"addr:city": "Krak\u00f3w", "addr:country": "PL", "addr:housenumber": "53", "addr:postcode": "31-142", "addr:street": "Krowoderska", "name": "City Sun Apartment", "smoking": "no", "tourism": "apartment", "website": "https://www.apartament-krakow.pl/apartament-citysun"}}, {"type": "node", "id": 1918052658, "lat": 50.0662356, "lon": 19.9295833, "tags": {"addr:city": "Krak\u00f3w", "addr:country": "PL", "addr:housenumber": "36", "addr:postcode": "31-128", "addr:street": "Karmelicka", "check_date": "2024-06-11", "name": "Maksymilian", "tourism": "hotel", "wikidata": "Q30169610"}}, {"type": "node", "id": 1918096821, "lat": 50.0597441, "lon": 19.9281938, "tags": {"addr:city": "Krak\u00f3w", "addr:country": "PL", "addr:housenumber": "24", "addr:postcode": "31-109", "addr:street": "Marsza\u0142ka J\u00f3zefa Pi\u0142sudskiego", "check_date": "2024-09-24", "internet_access": "wlan", "name": "Ostoya Palace Hotel", "rooms": "24", "stars": "4", "tourism": "hotel"}}, {"type": "node", "id": 1920848986, "lat": 50.0885996, "lon": 19.9023892, "tags": {"addr:housenumber": "29", "addr:street": "Josepha Conrada", "alt_name": "Hotel Great Polonia Conrad Krakow", "name": "Conrad Hotel", "tourism": "hotel", "website": "https://conrad.hotelsofkrakow.net/", "wikidata": "Q111858978"}}, {"type": "node", "id": 1920848988, "lat": 50.0909887, "lon": 19.960253}, {"type": "node", "id": 1936191430, "lat": 50.0682605, "lon": 19.9433333, "tags": {"addr:city": "Krak\u00f3w", "addr:housenumber": "3", "addr:postcode": "31-155", "addr:street": "Warszawska", "name": "Laiko Apartments", "phone": "+48 508 701 958", "tourism": "hotel", "website": "https://laikoapartments.pl/"}}, {"type": "node", "id": 1939175776, "lat": 50.0494988, "lon": 19.9431219}, {"type": "node", "id": 1940976070, "lat": 50.0603063, "lon": 19.950533, "tags": {"addr:city": "Krak\u00f3w", "addr:country": "PL", "addr:housenumber": "19", "addr:postcode": "31-529", "addr:street": "Genera\u0142a Romana So\u0142tyka", "name": "Batory", "stars": "3", "tourism": "hotel", "wikidata": "Q111119050"}}, {"type": "node", "id": 1942152476, "lat": 50.0716142, "lon": 19.9622233, "tags": {"addr:city": "Krak\u00f3w", "addr:country": "PL", "addr:housenumber": "14", "addr:postcode": "31-517", "addr:street": "Genera\u0142a J\u00f3zefa Bema", "tourism": "hostel"}}, {"type": "node", "id": 1979022206, "lat": 50.0476949, "lon": 19.9525108, "tags": {"entrance": "main"}}, {"type": "node", "id": 1980047167, "lat": 50.0226135, "lon": 19.9957322, "tags": {"addr:city": "Krak\u00f3w", "addr:country": "PL", "addr:housenumber": "11", "addr:postcode": "30-819", "addr:street": "G\u00f3rnik\u00f3w", "email": "biuro@hostelvictoria.pl", "name": "Hostel Victoria", "phone": "+48 12 658 43 00", "phone_1": "+48 664 420 465", "tourism": "hostel", "website": "www.hostelvictoria.pl"}}, {"type": "node", "id": 2000505681, "lat": 50.0646896, "lon": 19.9406017}, {"type": "node", "id": 2056597993, "lat": 50.0477036, "lon": 19.9531391}, {"type": "node", "id": 2058501052, "lat": 50.0479208, "lon": 19.9529709, "tags": {"entrance": "yes"}}, {"type": "node", "id": 2065500527, "lat": 50.0447885, "lon": 19.945923}, {"type": "node", "id": 2065500528, "lat": 50.0448369, "lon": 19.9459862}, {"type": "node", "id": 2065500529, "lat": 50.044718, "lon": 19.9461469}, {"type": "node", "id": 2075954500, "lat": 50.0476649, "lon": 19.9490874, "tags": {"name": "Boat Hostel Barka Basia", "source": "Hostelbookers.com", "tourism": "hostel"}}, {"type": "node", "id": 2133036126, "lat": 50.0415791, "lon": 19.9430734, "tags": {"addr:city": "Krak\u00f3w", "addr:housenumber": "42", "addr:postcode": "30-504", "addr:street": "Kalwaryjska", "name": "Hostel Guliwer", "tourism": "hostel", "website": "https://hostelguliwer.nocowanie.pl/"}}, {"type": "node", "id": 2135508849, "lat": 50.0512307, "lon": 19.9469375, "tags": {"addr:city": "Krak\u00f3w", "addr:housenumber": "34", "addr:postcode": "31-056", "addr:street": "J\u00f3zefa", "internet_access": "yes", "name": "Apartamenty Sekret Kazimierza", "tourism": "hotel"}}, {"type": "node", "id": 2139439013, "lat": 50.0707776, "lon": 19.9458449}, {"type": "node", "id": 2139439014, "lat": 50.0706589, "lon": 19.9458484}, {"type": "node", "id": 2144930393, "lat": 50.049873, "lon": 19.9465051, "tags": {"name": "Aparthotel Miodosytnia", "tourism": "hotel", "website": "https://www.miodosytnia.com.pl/"}}, {"type": "node", "id": 2146339764, "lat": 50.0706472, "lon": 19.8693601, "tags": {"addr:housenumber": "26a", "addr:street": "Morelowa", "name": "Hotel Daisy Superior", "phone": "+48124252797", "tourism": "hotel", "wikidata": "Q111119052"}}, {"type": "node", "id": 2188455410, "lat": 50.0662318, "lon": 19.9333067, "tags": {"addr:housenumber": "7a", "addr:street": "Garbarska", "internet_access": "yes", "internet_access:fee": "no", "name": "Stanis\u0142aw Pigo\u0144 Visiting Professors' House", "tourism": "hotel", "website": "https://dg.uj.edu.pl/en_GB/garbarska"}}, {"type": "node", "id": 2217193956, "lat": 50.0553681, "lon": 19.9256751, "tags": {"addr:city": "Krak\u00f3w", "addr:housenumber": "2", "addr:postcode": "30-102", "addr:street": "W\u0142adys\u0142awa Syrokomli", "air_conditioning": "yes", "brand": "Ibis", "brand:wikidata": "Q920166", "internet_access": "wlan", "name": "Ibis Krakow Centrum", "operator": "Accor", "phone": "+48 12 299 33 00", "tourism": "hotel", "website": "https://all.accor.com/hotel/3710/index.en.shtml", "wikidata": "Q111401090"}}, {"type": "node", "id": 2217193962, "lat": 50.0548864, "lon": 19.9259705, "tags": {"brand": "Novotel", "brand:wikidata": "Q420545", "contact:phone": "+48 12 2992900", "name": "Novotel Krakow Centrum", "operator": "Accor", "rooms": "198", "stars": "4", "tourism": "hotel", "wheelchair": "yes", "wikidata": "Q111401091"}}, {"type": "node", "id": 2255630601, "lat": 50.0479291, "lon": 19.9701479, "tags": {"addr:city": "Krak\u00f3w", "addr:housenumber": "24", "addr:postcode": "30-705", "addr:street": "Stanis\u0142awa Klimeckiego", "check_date": "2025-06-27", "name": "Hotel Alf", "phone": "+48 601 570 062", "tourism": "hotel", "website": "https://hotelalf.pl/", "wikidata": "Q112001050"}}, {"type": "node", "id": 2269267693, "lat": 50.0642102, "lon": 19.8759496, "tags": {"name": "4.Friends", "tourism": "guest_house"}}, {"type": "node", "id": 2269411976, "lat": 50.0643142, "lon": 19.875611, "tags": {"name": "4.Couples", "tourism": "guest_house"}}, {"type": "node", "id": 2282614780, "lat": 50.0567731, "lon": 20.0505361, "tags": {"contact:email": "biuro@oberza-krakow.pl", "contact:mobile": "+48 515122999", "contact:phone": "+48 12 6445785", "contact:website": "http://www.oberza-krakow.pl/", "internet_access": "wlan", "internet_access:fee": "no", "name": "Ober\u017ca pod Czarnym Koniem", "tourism": "guest_house"}}, {"type": "node", "id": 2385014573, "lat": 50.0204594, "lon": 19.8990351, "tags": {"check_date": "2025-05-26", "name": "Vanilla Aparthotel", "name:en": "Vanilla Aparthotel", "phone": "+48 12 354 01 50", "tourism": "hotel", "website": "https://www.aparthotelvanilla.pl/"}}, {"type": "node", "id": 2387144955, "lat": 50.0741405, "lon": 19.8894725}, {"type": "node", "id": 2387144957, "lat": 50.0741438, "lon": 19.8894436}, {"type": "node", "id": 2387144975, "lat": 50.0741655, "lon": 19.8896213}, {"type": "node", "id": 2387144984, "lat": 50.0741816, "lon": 19.8894842}, {"type": "node", "id": 2387145007, "lat": 50.0742179, "lon": 19.8894945}, {"type": "node", "id": 2387145012, "lat": 50.0742212, "lon": 19.8894656}, {"type": "node", "id": 2387145042, "lat": 50.0742415, "lon": 19.8896433}, {"type": "node", "id": 2387145050, "lat": 50.0742538, "lon": 19.8895047}, {"type": "node", "id": 2387145052, "lat": 50.0742553, "lon": 19.889491}, {"type": "node", "id": 2387145054, "lat": 50.0742567, "lon": 19.8895056}, {"type": "node", "id": 2387145056, "lat": 50.0742584, "lon": 19.8894918}, {"type": "node", "id": 2387145064, "lat": 50.0742685, "lon": 19.8896652}, {"type": "node", "id": 2387145065, "lat": 50.0742702, "lon": 19.8896513}, {"type": "node", "id": 2387145067, "lat": 50.074272, "lon": 19.8896662}, {"type": "node", "id": 2387145070, "lat": 50.0742738, "lon": 19.8896524}, {"type": "node", "id": 2387145079, "lat": 50.0742859, "lon": 19.8895139}, {"type": "node", "id": 2387145081, "lat": 50.0742875, "lon": 19.8895001}, {"type": "node", "id": 2387145083, "lat": 50.0742895, "lon": 19.8895148}, {"type": "node", "id": 2387145085, "lat": 50.074291, "lon": 19.8895012}, {"type": "node", "id": 2387145100, "lat": 50.0743084, "lon": 19.8896765}, {"type": "node", "id": 2387145102, "lat": 50.07431, "lon": 19.8896627}, {"type": "node", "id": 2387145106, "lat": 50.0743119, "lon": 19.8896774}, {"type": "node", "id": 2387145108, "lat": 50.0743135, "lon": 19.8896637}, {"type": "node", "id": 2387145115, "lat": 50.0743258, "lon": 19.8895252}, {"type": "node", "id": 2387145116, "lat": 50.0743273, "lon": 19.8895115}, {"type": "node", "id": 2387145118, "lat": 50.0743293, "lon": 19.8895261}, {"type": "node", "id": 2387145119, "lat": 50.0743309, "lon": 19.8895124}, {"type": "node", "id": 2387145127, "lat": 50.0743447, "lon": 19.8896868}, {"type": "node", "id": 2387145128, "lat": 50.0743462, "lon": 19.889673}, {"type": "node", "id": 2387145132, "lat": 50.0743481, "lon": 19.8896877}, {"type": "node", "id": 2387145134, "lat": 50.0743498, "lon": 19.8896741}, {"type": "node", "id": 2387145143, "lat": 50.0743619, "lon": 19.8895355}, {"type": "node", "id": 2387145145, "lat": 50.0743636, "lon": 19.8895218}, {"type": "node", "id": 2387145147, "lat": 50.0743655, "lon": 19.8895365}, {"type": "node", "id": 2387145150, "lat": 50.0743672, "lon": 19.8895227}, {"type": "node", "id": 2387147462, "lat": 50.075921, "lon": 19.8923948}, {"type": "node", "id": 2387147466, "lat": 50.07593, "lon": 19.892272}, {"type": "node", "id": 2387147472, "lat": 50.0759449, "lon": 19.8922741}, {"type": "node", "id": 2387147479, "lat": 50.0759511, "lon": 19.8921927}, {"type": "node", "id": 2387147683, "lat": 50.0761838, "lon": 19.8924502}, {"type": "node", "id": 2387147685, "lat": 50.0761845, "lon": 19.8924428}, {"type": "node", "id": 2387147702, "lat": 50.0762143, "lon": 19.8924568}, {"type": "node", "id": 2387147703, "lat": 50.0762147, "lon": 19.8924489}, {"type": "node", "id": 2387147896, "lat": 50.0765113, "lon": 19.8925186}, {"type": "node", "id": 2387147903, "lat": 50.0765204, "lon": 19.8924062}, {"type": "node", "id": 2387147916, "lat": 50.0765325, "lon": 19.8924093}, {"type": "node", "id": 2387147922, "lat": 50.0765407, "lon": 19.8923187}, {"type": "node", "id": 2388226359, "lat": 50.0693612, "lon": 19.9030013}, {"type": "node", "id": 2388226376, "lat": 50.0693763, "lon": 19.9029013}, {"type": "node", "id": 2388226387, "lat": 50.0693884, "lon": 19.9028212}, {"type": "node", "id": 2388226393, "lat": 50.0694036, "lon": 19.902721}, {"type": "node", "id": 2388226394, "lat": 50.0694037, "lon": 19.9029113}, {"type": "node", "id": 2388226404, "lat": 50.0694157, "lon": 19.9028312}, {"type": "node", "id": 2388226596, "lat": 50.0696712, "lon": 19.9030048}, {"type": "node", "id": 2388226608, "lat": 50.0696827, "lon": 19.9029287}, {"type": "node", "id": 2388226609, "lat": 50.0696828, "lon": 19.9031191}, {"type": "node", "id": 2388226622, "lat": 50.0696985, "lon": 19.9030148}, {"type": "node", "id": 2388226629, "lat": 50.0697101, "lon": 19.9029387}, {"type": "node", "id": 2388226636, "lat": 50.0697251, "lon": 19.9028387}, {"type": "node", "id": 2388226664, "lat": 50.0697745, "lon": 19.8982011}, {"type": "node", "id": 2388226717, "lat": 50.0698365, "lon": 19.8977038}, {"type": "node", "id": 2388226725, "lat": 50.0698437, "lon": 19.8977061}, {"type": "node", "id": 2388226729, "lat": 50.06985, "lon": 19.8976078}, {"type": "node", "id": 2388226788, "lat": 50.0699445, "lon": 19.8982691}, {"type": "node", "id": 2388226789, "lat": 50.0699466, "lon": 19.8982584}, {"type": "node", "id": 2388226793, "lat": 50.069956, "lon": 19.8982731}, {"type": "node", "id": 2388226794, "lat": 50.0699575, "lon": 19.8982633}, {"type": "node", "id": 2388226839, "lat": 50.0700144, "lon": 19.8982812}, {"type": "node", "id": 2388226842, "lat": 50.070017, "lon": 19.8982616}, {"type": "node", "id": 2388226861, "lat": 50.0700457, "lon": 19.8982925}, {"type": "node", "id": 2388226863, "lat": 50.0700484, "lon": 19.8982726}, {"type": "node", "id": 2388226891, "lat": 50.0700818, "lon": 19.897431}, {"type": "node", "id": 2388226898, "lat": 50.0700932, "lon": 19.8973517}, {"type": "node", "id": 2388226911, "lat": 50.0701138, "lon": 19.8976938}, {"type": "node", "id": 2388226930, "lat": 50.0701479, "lon": 19.8974534}, {"type": "node", "id": 2388226961, "lat": 50.0701996, "lon": 19.8983459}, {"type": "node", "id": 2388227024, "lat": 50.07033, "lon": 19.8974326}, {"type": "node", "id": 2388231646, "lat": 50.0757225, "lon": 19.8817445}, {"type": "node", "id": 2388231736, "lat": 50.0757664, "lon": 19.8814917}, {"type": "node", "id": 2388231973, "lat": 50.0759816, "lon": 19.8818498}, {"type": "node", "id": 2388232000, "lat": 50.0760249, "lon": 19.8815996}, {"type": "node", "id": 2389195012, "lat": 50.0815074, "lon": 19.8492987}, {"type": "node", "id": 2389195067, "lat": 50.0815663, "lon": 19.8493425}, {"type": "node", "id": 2389195107, "lat": 50.0815907, "lon": 19.8490194}, {"type": "node", "id": 2389195217, "lat": 50.0816826, "lon": 19.8494254}, {"type": "node", "id": 2389195346, "lat": 50.0817659, "lon": 19.8491454}, {"type": "node", "id": 2401454020, "lat": 50.0601508, "lon": 19.9222499}, {"type": "node", "id": 2401454021, "lat": 50.0601554, "lon": 19.922139}, {"type": "node", "id": 2401454026, "lat": 50.0601683, "lon": 19.9219715}, {"type": "node", "id": 2401454028, "lat": 50.0601731, "lon": 19.9219702}, {"type": "node", "id": 2401454031, "lat": 50.0601875, "lon": 19.9215925}, {"type": "node", "id": 2401454035, "lat": 50.0601916, "lon": 19.9215934}, {"type": "node", "id": 2401454037, "lat": 50.0601969, "lon": 19.9214192}, {"type": "node", "id": 2401454038, "lat": 50.0602003, "lon": 19.9214169}, {"type": "node", "id": 2401454040, "lat": 50.060202, "lon": 19.9222534}, {"type": "node", "id": 2401454045, "lat": 50.0602207, "lon": 19.9210801}, {"type": "node", "id": 2401454056, "lat": 50.0602929, "lon": 19.9218073}, {"type": "node", "id": 2401454061, "lat": 50.0602951, "lon": 19.9217547}, {"type": "node", "id": 2401454063, "lat": 50.0603022, "lon": 19.9220567}, {"type": "node", "id": 2401454068, "lat": 50.0603205, "lon": 19.9216044}, {"type": "node", "id": 2401454071, "lat": 50.0603229, "lon": 19.9216048}, {"type": "node", "id": 2401454074, "lat": 50.0602955, "lon": 19.9220313}, {"type": "node", "id": 2401454084, "lat": 50.0603509, "lon": 19.9218419}, {"type": "node", "id": 2401454087, "lat": 50.0603131, "lon": 19.9218165}, {"type": "node", "id": 2401454089, "lat": 50.0603064, "lon": 19.9218108}, {"type": "node", "id": 2401454104, "lat": 50.060373, "lon": 19.9220641}, {"type": "node", "id": 2401454106, "lat": 50.0603734, "lon": 19.9220514}, {"type": "node", "id": 2401454136, "lat": 50.0604235, "lon": 19.9212121}, {"type": "node", "id": 2401454140, "lat": 50.0604256, "lon": 19.9212035}, {"type": "node", "id": 2401454193, "lat": 50.0604465, "lon": 19.9222864}, {"type": "node", "id": 2401454233, "lat": 50.0604743, "lon": 19.921468}, {"type": "node", "id": 2401454236, "lat": 50.0604954, "lon": 19.9220816}, {"type": "node", "id": 2401454237, "lat": 50.060481, "lon": 19.9220642}, {"type": "node", "id": 2401454238, "lat": 50.0604819, "lon": 19.9214442}, {"type": "node", "id": 2401454244, "lat": 50.0605246, "lon": 19.9212783}, {"type": "node", "id": 2401454245, "lat": 50.0605268, "lon": 19.9212707}, {"type": "node", "id": 2401454247, "lat": 50.0605019, "lon": 19.9214579, "tags": {"entrance": "service"}}, {"type": "node", "id": 2401454254, "lat": 50.0605513, "lon": 19.9214896}, {"type": "node", "id": 2401454258, "lat": 50.0605671, "lon": 19.9220832}, {"type": "node", "id": 2401454260, "lat": 50.0605646, "lon": 19.9220911}, {"type": "node", "id": 2401454268, "lat": 50.0605438, "lon": 19.9217923}, {"type": "node", "id": 2401454270, "lat": 50.0605836, "lon": 19.9220387}, {"type": "node", "id": 2401454271, "lat": 50.0605417, "lon": 19.9217519}, {"type": "node", "id": 2401454274, "lat": 50.0605883, "lon": 19.92204}, {"type": "node", "id": 2401454279, "lat": 50.0605951, "lon": 19.9218428}, {"type": "node", "id": 2401454285, "lat": 50.0606018, "lon": 19.9217716}, {"type": "node", "id": 2401454295, "lat": 50.0606161, "lon": 19.9215318}, {"type": "node", "id": 2401454302, "lat": 50.0606356, "lon": 19.922312}, {"type": "node", "id": 2401454339, "lat": 50.0606861, "lon": 19.9223142}, {"type": "node", "id": 2401454344, "lat": 50.0606914, "lon": 19.9223149}, {"type": "node", "id": 2401454348, "lat": 50.0606961, "lon": 19.9222121}, {"type": "node", "id": 2401454350, "lat": 50.0607007, "lon": 19.9220415}, {"type": "node", "id": 2401454353, "lat": 50.0607063, "lon": 19.9220417}, {"type": "node", "id": 2401454447, "lat": 50.0608973, "lon": 19.9212588}, {"type": "node", "id": 2401454456, "lat": 50.0609201, "lon": 19.9208117}, {"type": "node", "id": 2401454461, "lat": 50.0609412, "lon": 19.9208135}, {"type": "node", "id": 2401454462, "lat": 50.060942, "lon": 19.9207914}, {"type": "node", "id": 2401454463, "lat": 50.0609438, "lon": 19.9213006}, {"type": "node", "id": 2401454464, "lat": 50.0609454, "lon": 19.9212661}, {"type": "node", "id": 2401454466, "lat": 50.0609557, "lon": 19.9208148}, {"type": "node", "id": 2401454467, "lat": 50.0609563, "lon": 19.9207923}, {"type": "node", "id": 2401454484, "lat": 50.0610144, "lon": 19.9213109}, {"type": "node", "id": 2401454494, "lat": 50.0610217, "lon": 19.9213119}, {"type": "node", "id": 2401454496, "lat": 50.0610239, "lon": 19.9212683}, {"type": "node", "id": 2401454499, "lat": 50.0610266, "lon": 19.9212141}, {"type": "node", "id": 2401454514, "lat": 50.0610461, "lon": 19.9208226}, {"type": "node", "id": 2401456192, "lat": 50.0647419, "lon": 19.9189023}, {"type": "node", "id": 2401456247, "lat": 50.0648078, "lon": 19.9186174}, {"type": "node", "id": 2401456250, "lat": 50.0648201, "lon": 19.9186257}, {"type": "node", "id": 2401456362, "lat": 50.0649209, "lon": 19.9188215}, {"type": "node", "id": 2401456364, "lat": 50.0649246, "lon": 19.9186824}, {"type": "node", "id": 2401456370, "lat": 50.0649321, "lon": 19.9187379}, {"type": "node", "id": 2401456376, "lat": 50.0649373, "lon": 19.9186289}, {"type": "node", "id": 2401456379, "lat": 50.0649373, "lon": 19.9187156}, {"type": "node", "id": 2401456381, "lat": 50.0649391, "lon": 19.9187428}, {"type": "node", "id": 2401456383, "lat": 50.0649425, "lon": 19.9186929}, {"type": "node", "id": 2401456385, "lat": 50.0649444, "lon": 19.9185996}, {"type": "node", "id": 2401456400, "lat": 50.0649448, "lon": 19.9180958}, {"type": "node", "id": 2401456409, "lat": 50.064952, "lon": 19.9180035}, {"type": "node", "id": 2401456418, "lat": 50.0649559, "lon": 19.9180476}, {"type": "node", "id": 2401456424, "lat": 50.0649645, "lon": 19.9180098}, {"type": "node", "id": 2401456527, "lat": 50.0650203, "lon": 19.9177101}, {"type": "node", "id": 2401456531, "lat": 50.0650221, "lon": 19.9190607}, {"type": "node", "id": 2401456590, "lat": 50.0650573, "lon": 19.9188984}, {"type": "node", "id": 2401456614, "lat": 50.0650612, "lon": 19.9188825}, {"type": "node", "id": 2401456636, "lat": 50.065064, "lon": 19.9188845}, {"type": "node", "id": 2401456729, "lat": 50.0650785, "lon": 19.9180212}, {"type": "node", "id": 2401456762, "lat": 50.0651064, "lon": 19.9180375}, {"type": "node", "id": 2401456800, "lat": 50.0651267, "lon": 19.9179514}, {"type": "node", "id": 2401456924, "lat": 50.0652711, "lon": 19.9180334}, {"type": "node", "id": 2401456939, "lat": 50.0653093, "lon": 19.917873}, {"type": "node", "id": 2401456954, "lat": 50.0653267, "lon": 19.9166105}, {"type": "node", "id": 2401456956, "lat": 50.0653274, "lon": 19.9166509}, {"type": "node", "id": 2401456963, "lat": 50.0653359, "lon": 19.9166161}, {"type": "node", "id": 2401456972, "lat": 50.0653561, "lon": 19.916492}, {"type": "node", "id": 2401456977, "lat": 50.0653646, "lon": 19.9164967}, {"type": "node", "id": 2401456982, "lat": 50.0653735, "lon": 19.9164611}, {"type": "node", "id": 2401457021, "lat": 50.0654511, "lon": 19.9160789}, {"type": "node", "id": 2401457022, "lat": 50.0654519, "lon": 19.9161224}, {"type": "node", "id": 2401457025, "lat": 50.0654609, "lon": 19.916085}, {"type": "node", "id": 2401457034, "lat": 50.0654794, "lon": 19.9159622}, {"type": "node", "id": 2401457039, "lat": 50.0654881, "lon": 19.9159671}, {"type": "node", "id": 2401457045, "lat": 50.0654979, "lon": 19.9159283}, {"type": "node", "id": 2401457063, "lat": 50.0655364, "lon": 19.9165488}, {"type": "node", "id": 2401457074, "lat": 50.0655702, "lon": 19.9167939}, {"type": "node", "id": 2401457075, "lat": 50.0655756, "lon": 19.9155986}, {"type": "node", "id": 2401457076, "lat": 50.0655757, "lon": 19.9155547}, {"type": "node", "id": 2401457082, "lat": 50.0655834, "lon": 19.9167828}, {"type": "node", "id": 2401457083, "lat": 50.0655847, "lon": 19.9155606}, {"type": "node", "id": 2401457090, "lat": 50.0655985, "lon": 19.9165821}, {"type": "node", "id": 2401457094, "lat": 50.0656049, "lon": 19.9154349}, {"type": "node", "id": 2401457098, "lat": 50.0656125, "lon": 19.9154399}, {"type": "node", "id": 2401457099, "lat": 50.0656134, "lon": 19.9162159}, {"type": "node", "id": 2401457102, "lat": 50.0656148, "lon": 19.9168002}, {"type": "node", "id": 2401457104, "lat": 50.0656184, "lon": 19.9165928}, {"type": "node", "id": 2401457106, "lat": 50.0656221, "lon": 19.9154031}, {"type": "node", "id": 2401457109, "lat": 50.0656253, "lon": 19.9166128}, {"type": "node", "id": 2401457124, "lat": 50.0656561, "lon": 19.9166293}, {"type": "node", "id": 2401457127, "lat": 50.0656606, "lon": 19.9160203}, {"type": "node", "id": 2401457135, "lat": 50.0656729, "lon": 19.9162503}, {"type": "node", "id": 2401457146, "lat": 50.0656931, "lon": 19.916262}, {"type": "node", "id": 2401457149, "lat": 50.0656989, "lon": 19.9150661}, {"type": "node", "id": 2401457152, "lat": 50.0657003, "lon": 19.915024}, {"type": "node", "id": 2401457155, "lat": 50.0657079, "lon": 19.9150289}, {"type": "node", "id": 2401457156, "lat": 50.0657099, "lon": 19.9162541}, {"type": "node", "id": 2401457163, "lat": 50.0657181, "lon": 19.9160529}, {"type": "node", "id": 2401457169, "lat": 50.0657275, "lon": 19.9149043}, {"type": "node", "id": 2401457172, "lat": 50.0657359, "lon": 19.9149085}, {"type": "node", "id": 2401457174, "lat": 50.0657376, "lon": 19.9156921}, {"type": "node", "id": 2401457175, "lat": 50.0657399, "lon": 19.9162709}, {"type": "node", "id": 2401457176, "lat": 50.0657409, "lon": 19.9160657}, {"type": "node", "id": 2401457177, "lat": 50.0657451, "lon": 19.9148709}, {"type": "node", "id": 2401457179, "lat": 50.065747, "lon": 19.9160861}, {"type": "node", "id": 2401457186, "lat": 50.0657568, "lon": 19.9158909}, {"type": "node", "id": 2401457200, "lat": 50.0657786, "lon": 19.9161041}, {"type": "node", "id": 2401457203, "lat": 50.0657811, "lon": 19.9152066}, {"type": "node", "id": 2401457205, "lat": 50.0657819, "lon": 19.915494}, {"type": "node", "id": 2401457212, "lat": 50.0657891, "lon": 19.9151739}, {"type": "node", "id": 2401457218, "lat": 50.0657942, "lon": 19.915725}, {"type": "node", "id": 2401457241, "lat": 50.0658169, "lon": 19.9157379}, {"type": "node", "id": 2401457246, "lat": 50.0658219, "lon": 19.9144989}, {"type": "node", "id": 2401457247, "lat": 50.0658222, "lon": 19.9145397}, {"type": "node", "id": 2401457251, "lat": 50.0658302, "lon": 19.914504}, {"type": "node", "id": 2401457253, "lat": 50.0658313, "lon": 19.9157263}, {"type": "node", "id": 2401457261, "lat": 50.0658407, "lon": 19.9152419}, {"type": "node", "id": 2401457262, "lat": 50.0658425, "lon": 19.9155286}, {"type": "node", "id": 2401457266, "lat": 50.0658486, "lon": 19.9152092}, {"type": "node", "id": 2401457267, "lat": 50.0658493, "lon": 19.9143755}, {"type": "node", "id": 2401457275, "lat": 50.0658578, "lon": 19.9143801}, {"type": "node", "id": 2401457277, "lat": 50.0658589, "lon": 19.915162}, {"type": "node", "id": 2401457284, "lat": 50.0658649, "lon": 19.9157441}, {"type": "node", "id": 2401457285, "lat": 50.0658655, "lon": 19.9155416}, {"type": "node", "id": 2401457286, "lat": 50.0658667, "lon": 19.9143421}, {"type": "node", "id": 2401457288, "lat": 50.0658669, "lon": 19.9157358}, {"type": "node", "id": 2401457290, "lat": 50.0658703, "lon": 19.9155625}, {"type": "node", "id": 2401457322, "lat": 50.0659028, "lon": 19.9155803}, {"type": "node", "id": 2401457324, "lat": 50.0659051, "lon": 19.9149633}, {"type": "node", "id": 2401457335, "lat": 50.06592, "lon": 19.9151987}, {"type": "node", "id": 2401457353, "lat": 50.0659396, "lon": 19.9152104}, {"type": "node", "id": 2401457364, "lat": 50.0659549, "lon": 19.9151992}, {"type": "node", "id": 2401457376, "lat": 50.0659663, "lon": 19.9149987}, {"type": "node", "id": 2401457390, "lat": 50.0659836, "lon": 19.914631}, {"type": "node", "id": 2401457394, "lat": 50.0659868, "lon": 19.9152178}, {"type": "node", "id": 2401457396, "lat": 50.065987, "lon": 19.9150105}, {"type": "node", "id": 2401457404, "lat": 50.0659956, "lon": 19.9150292}, {"type": "node", "id": 2401457435, "lat": 50.066027, "lon": 19.9150486}, {"type": "node", "id": 2401457451, "lat": 50.0660446, "lon": 19.9146654}, {"type": "node", "id": 2401457515, "lat": 50.0661093, "lon": 19.914702}, {"type": "node", "id": 2401457550, "lat": 50.0661572, "lon": 19.9145054}, {"type": "node", "id": 2401458610, "lat": 50.0673587, "lon": 19.9156486}, {"type": "node", "id": 2401458623, "lat": 50.067362, "lon": 19.9158875}, {"type": "node", "id": 2401458743, "lat": 50.0674718, "lon": 19.9156955}, {"type": "node", "id": 2401462891, "lat": 50.0701728, "lon": 19.9238024}, {"type": "node", "id": 2401463071, "lat": 50.0702198, "lon": 19.9236398}, {"type": "node", "id": 2401463097, "lat": 50.0702254, "lon": 19.9239271}, {"type": "node", "id": 2401463129, "lat": 50.0702394, "lon": 19.9238412}, {"type": "node", "id": 2401463144, "lat": 50.0702436, "lon": 19.923879}, {"type": "node", "id": 2401463191, "lat": 50.070257, "lon": 19.9238286}, {"type": "node", "id": 2401463198, "lat": 50.0702584, "lon": 19.9238692}, {"type": "node", "id": 2401463242, "lat": 50.0702694, "lon": 19.9238266}, {"type": "node", "id": 2401463278, "lat": 50.0702752, "lon": 19.9238073}, {"type": "node", "id": 2401463288, "lat": 50.0702776, "lon": 19.9238831}, {"type": "node", "id": 2401463407, "lat": 50.0702959, "lon": 19.9238224}, {"type": "node", "id": 2401463611, "lat": 50.0703277, "lon": 19.924024}, {"type": "node", "id": 2401464213, "lat": 50.0703873, "lon": 19.9237308}, {"type": "node", "id": 2401464233, "lat": 50.0704063, "lon": 19.9238062}, {"type": "node", "id": 2404267316, "lat": 50.0493777, "lon": 19.865491}, {"type": "node", "id": 2404267321, "lat": 50.0494218, "lon": 19.8653191}, {"type": "node", "id": 2404267324, "lat": 50.049429, "lon": 19.8655343}, {"type": "node", "id": 2404267325, "lat": 50.0494292, "lon": 19.865342}, {"type": "node", "id": 2404267327, "lat": 50.049432, "lon": 19.8652902}, {"type": "node", "id": 2404267328, "lat": 50.0494324, "lon": 19.8655244}, {"type": "node", "id": 2404267329, "lat": 50.0494383, "lon": 19.8653492}, {"type": "node", "id": 2404267331, "lat": 50.0494391, "lon": 19.8652961}, {"type": "node", "id": 2404267332, "lat": 50.0494403, "lon": 19.8655441}, {"type": "node", "id": 2404267333, "lat": 50.0494426, "lon": 19.8653367}, {"type": "node", "id": 2404267334, "lat": 50.0494437, "lon": 19.8655345}, {"type": "node", "id": 2404267336, "lat": 50.0494474, "lon": 19.8656636}, {"type": "node", "id": 2404267339, "lat": 50.0494498, "lon": 19.8652671}, {"type": "node", "id": 2404267344, "lat": 50.0494601, "lon": 19.865628}, {"type": "node", "id": 2404267345, "lat": 50.0494641, "lon": 19.8656166}, {"type": "node", "id": 2404267346, "lat": 50.0494645, "lon": 19.8656317}, {"type": "node", "id": 2404267347, "lat": 50.049466, "lon": 19.8657845}, {"type": "node", "id": 2404267348, "lat": 50.0494664, "lon": 19.86561}, {"type": "node", "id": 2404267349, "lat": 50.0494686, "lon": 19.8656203}, {"type": "node", "id": 2404267350, "lat": 50.049479, "lon": 19.8653229}, {"type": "node", "id": 2404267353, "lat": 50.0494878, "lon": 19.8652983}, {"type": "node", "id": 2404267354, "lat": 50.0494938, "lon": 19.8657018}, {"type": "node", "id": 2404267356, "lat": 50.0494977, "lon": 19.8656353}, {"type": "node", "id": 2404267357, "lat": 50.0495003, "lon": 19.8658136}, {"type": "node", "id": 2404267359, "lat": 50.0495044, "lon": 19.8658025}, {"type": "node", "id": 2404267361, "lat": 50.0495093, "lon": 19.8656017}, {"type": "node", "id": 2404267370, "lat": 50.0495382, "lon": 19.8658309}, {"type": "node", "id": 2404267377, "lat": 50.0495492, "lon": 19.8657995}, {"type": "node", "id": 2404267382, "lat": 50.049559, "lon": 19.8653907}, {"type": "node", "id": 2404267383, "lat": 50.0495599, "lon": 19.865388}, {"type": "node", "id": 2404267384, "lat": 50.0495602, "lon": 19.865821}, {"type": "node", "id": 2404267385, "lat": 50.0495634, "lon": 19.8658114}, {"type": "node", "id": 2404267387, "lat": 50.0495794, "lon": 19.8656862}, {"type": "node", "id": 2404267388, "lat": 50.049595, "lon": 19.8658505}, {"type": "node", "id": 2404267389, "lat": 50.0495984, "lon": 19.8658412}, {"type": "node", "id": 2404267390, "lat": 50.049605, "lon": 19.8658722}, {"type": "node", "id": 2404267391, "lat": 50.0496112, "lon": 19.8652049}, {"type": "node", "id": 2404267392, "lat": 50.0496119, "lon": 19.8658525}, {"type": "node", "id": 2404267393, "lat": 50.0496121, "lon": 19.8652394}, {"type": "node", "id": 2404267394, "lat": 50.0496151, "lon": 19.8655806}, {"type": "node", "id": 2404267395, "lat": 50.0496212, "lon": 19.865213}, {"type": "node", "id": 2404267396, "lat": 50.0496221, "lon": 19.8651718}, {"type": "node", "id": 2404267397, "lat": 50.0496232, "lon": 19.8654409}, {"type": "node", "id": 2404267398, "lat": 50.0496244, "lon": 19.8655882}, {"type": "node", "id": 2404267399, "lat": 50.049626, "lon": 19.8655835}, {"type": "node", "id": 2404267400, "lat": 50.0496323, "lon": 19.8651798}, {"type": "node", "id": 2404267401, "lat": 50.049636, "lon": 19.8655201}, {"type": "node", "id": 2404267402, "lat": 50.0496421, "lon": 19.8659032}, {"type": "node", "id": 2404267403, "lat": 50.0496496, "lon": 19.8651304}, {"type": "node", "id": 2404267404, "lat": 50.0496502, "lon": 19.8657633}, {"type": "node", "id": 2404267405, "lat": 50.0496546, "lon": 19.8654672}, {"type": "node", "id": 2404267406, "lat": 50.0496546, "lon": 19.8657503}, {"type": "node", "id": 2404267407, "lat": 50.0496648, "lon": 19.8658396}, {"type": "node", "id": 2404267408, "lat": 50.0496702, "lon": 19.8658524}, {"type": "node", "id": 2404267409, "lat": 50.0496714, "lon": 19.8656209}, {"type": "node", "id": 2404267410, "lat": 50.0496725, "lon": 19.8658457}, {"type": "node", "id": 2404267411, "lat": 50.049674, "lon": 19.8652936}, {"type": "node", "id": 2404267412, "lat": 50.0496782, "lon": 19.8657873}, {"type": "node", "id": 2404267413, "lat": 50.0496841, "lon": 19.8651595}, {"type": "node", "id": 2404267414, "lat": 50.0496866, "lon": 19.8657633}, {"type": "node", "id": 2404267415, "lat": 50.0496903, "lon": 19.865142}, {"type": "node", "id": 2404267416, "lat": 50.0496904, "lon": 19.8655665}, {"type": "node", "id": 2404267417, "lat": 50.0496958, "lon": 19.8651656}, {"type": "node", "id": 2404267418, "lat": 50.0496959, "lon": 19.865874}, {"type": "node", "id": 2404267419, "lat": 50.0497009, "lon": 19.865151}, {"type": "node", "id": 2404267420, "lat": 50.0497021, "lon": 19.8651709}, {"type": "node", "id": 2404267421, "lat": 50.0497073, "lon": 19.8651568}, {"type": "node", "id": 2404267422, "lat": 50.0497097, "lon": 19.86531}, {"type": "node", "id": 2404267423, "lat": 50.0497119, "lon": 19.8651434}, {"type": "node", "id": 2404267424, "lat": 50.0497121, "lon": 19.8651607}, {"type": "node", "id": 2404267425, "lat": 50.0497169, "lon": 19.8651477}, {"type": "node", "id": 2404267426, "lat": 50.0497236, "lon": 19.8657946}, {"type": "node", "id": 2404267427, "lat": 50.0497277, "lon": 19.8650977}, {"type": "node", "id": 2404267428, "lat": 50.0497408, "lon": 19.8654454}, {"type": "node", "id": 2404267429, "lat": 50.0497441, "lon": 19.8651834}, {"type": "node", "id": 2404267430, "lat": 50.0497494, "lon": 19.8651217}, {"type": "node", "id": 2404267431, "lat": 50.0497505, "lon": 19.8654175}, {"type": "node", "id": 2404267432, "lat": 50.049751, "lon": 19.8651171}, {"type": "node", "id": 2404267433, "lat": 50.0497571, "lon": 19.8651943}, {"type": "node", "id": 2404267434, "lat": 50.0497611, "lon": 19.8651835}, {"type": "node", "id": 2404267435, "lat": 50.0497616, "lon": 19.8654262}, {"type": "node", "id": 2404267436, "lat": 50.0497617, "lon": 19.865132}, {"type": "node", "id": 2404267437, "lat": 50.0497657, "lon": 19.8654869}, {"type": "node", "id": 2404267439, "lat": 50.0497712, "lon": 19.8654713}, {"type": "node", "id": 2404267441, "lat": 50.0497818, "lon": 19.8653686}, {"type": "node", "id": 2404267442, "lat": 50.0497833, "lon": 19.8655015}, {"type": "node", "id": 2404267443, "lat": 50.0497981, "lon": 19.8660014}, {"type": "node", "id": 2404267444, "lat": 50.0498102, "lon": 19.8652239}, {"type": "node", "id": 2404267445, "lat": 50.049814, "lon": 19.8652127}, {"type": "node", "id": 2404267446, "lat": 50.0498165, "lon": 19.8657498}, {"type": "node", "id": 2404267447, "lat": 50.0498197, "lon": 19.8654002}, {"type": "node", "id": 2404267448, "lat": 50.0498243, "lon": 19.865265}, {"type": "node", "id": 2404267449, "lat": 50.0498281, "lon": 19.8657151}, {"type": "node", "id": 2404267450, "lat": 50.049829, "lon": 19.8658182}, {"type": "node", "id": 2404267451, "lat": 50.0498292, "lon": 19.865408}, {"type": "node", "id": 2404267452, "lat": 50.0498336, "lon": 19.8657001}, {"type": "node", "id": 2404267454, "lat": 50.0498363, "lon": 19.8652303}, {"type": "node", "id": 2404267455, "lat": 50.0498375, "lon": 19.8658905}, {"type": "node", "id": 2404267457, "lat": 50.049843, "lon": 19.8657271}, {"type": "node", "id": 2404267458, "lat": 50.0498439, "lon": 19.865669}, {"type": "node", "id": 2404267459, "lat": 50.0498446, "lon": 19.8654538}, {"type": "node", "id": 2404267460, "lat": 50.0498446, "lon": 19.8657741}, {"type": "node", "id": 2404267461, "lat": 50.0498481, "lon": 19.8657118}, {"type": "node", "id": 2404267462, "lat": 50.0498519, "lon": 19.8659024}, {"type": "node", "id": 2404267463, "lat": 50.0498526, "lon": 19.865288}, {"type": "node", "id": 2404267464, "lat": 50.0498532, "lon": 19.8654276}, {"type": "node", "id": 2404267465, "lat": 50.0498559, "lon": 19.8652788}, {"type": "node", "id": 2404267466, "lat": 50.0498583, "lon": 19.8656264}, {"type": "node", "id": 2404267467, "lat": 50.0498589, "lon": 19.8656809}, {"type": "node", "id": 2404267468, "lat": 50.0498682, "lon": 19.8658549}, {"type": "node", "id": 2404267469, "lat": 50.0498683, "lon": 19.8660632}, {"type": "node", "id": 2404267470, "lat": 50.049871, "lon": 19.8652911}, {"type": "node", "id": 2404267471, "lat": 50.0498716, "lon": 19.8654756}, {"type": "node", "id": 2404267472, "lat": 50.0498731, "lon": 19.8656382}, {"type": "node", "id": 2404267473, "lat": 50.0498777, "lon": 19.8655685}, {"type": "node", "id": 2404267475, "lat": 50.0498802, "lon": 19.86545}, {"type": "node", "id": 2404267476, "lat": 50.0498925, "lon": 19.8655805}, {"type": "node", "id": 2404267477, "lat": 50.0498938, "lon": 19.8655226}, {"type": "node", "id": 2404267479, "lat": 50.0498984, "lon": 19.8659799}, {"type": "node", "id": 2404267480, "lat": 50.0499061, "lon": 19.865486}, {"type": "node", "id": 2404267481, "lat": 50.0499081, "lon": 19.8655339}, {"type": "node", "id": 2404267482, "lat": 50.0499113, "lon": 19.8654901}, {"type": "node", "id": 2404267483, "lat": 50.0499152, "lon": 19.8654782}, {"type": "node", "id": 2404267484, "lat": 50.0499243, "lon": 19.8657614}, {"type": "node", "id": 2404267486, "lat": 50.0499342, "lon": 19.8660104}, {"type": "node", "id": 2404267487, "lat": 50.0499417, "lon": 19.8657915}, {"type": "node", "id": 2404267488, "lat": 50.0499417, "lon": 19.8659885}, {"type": "node", "id": 2404267489, "lat": 50.0499454, "lon": 19.8657801}, {"type": "node", "id": 2404267491, "lat": 50.0499512, "lon": 19.8659533}, {"type": "node", "id": 2404267492, "lat": 50.0499549, "lon": 19.8659992}, {"type": "node", "id": 2404267493, "lat": 50.0499556, "lon": 19.8653599}, {"type": "node", "id": 2404267494, "lat": 50.049963, "lon": 19.8653379}, {"type": "node", "id": 2404267495, "lat": 50.0499662, "lon": 19.8659662}, {"type": "node", "id": 2404267496, "lat": 50.0499699, "lon": 19.865816}, {"type": "node", "id": 2404267497, "lat": 50.0499742, "lon": 19.8658038}, {"type": "node", "id": 2404267498, "lat": 50.0499806, "lon": 19.8653519}, {"type": "node", "id": 2404267499, "lat": 50.0499842, "lon": 19.8653412}, {"type": "node", "id": 2404267500, "lat": 50.0499955, "lon": 19.8658217}, {"type": "node", "id": 2404267501, "lat": 50.0499996, "lon": 19.8655384}, {"type": "node", "id": 2404267502, "lat": 50.0500103, "lon": 19.8654763}, {"type": "node", "id": 2404267503, "lat": 50.0500154, "lon": 19.8654808}, {"type": "node", "id": 2404267504, "lat": 50.0500177, "lon": 19.8654744}, {"type": "node", "id": 2404267505, "lat": 50.0500204, "lon": 19.8653856}, {"type": "node", "id": 2404267506, "lat": 50.0500244, "lon": 19.8653737}, {"type": "node", "id": 2404267507, "lat": 50.0500363, "lon": 19.8653989}, {"type": "node", "id": 2404267508, "lat": 50.0500391, "lon": 19.8655708}, {"type": "node", "id": 2404267509, "lat": 50.0500605, "lon": 19.8655114}, {"type": "node", "id": 2414350208, "lat": 50.0577982, "lon": 19.9061533}, {"type": "node", "id": 2414350283, "lat": 50.0579896, "lon": 19.9058605}, {"type": "node", "id": 2415569765, "lat": 50.0085334, "lon": 19.9322407, "tags": {"addr:city": "Krak\u00f3w", "addr:housenumber": "10 c", "addr:postcode": "30-443", "addr:street": "Jugowicka", "fax": "+48 122527071", "name": "Farmona Hotel Business & SPA", "operator": "Laboratorium Kosmetyk\u00f3w Naturalnych Farmona", "phone": "+48 122527070", "tourism": "hotel", "website": "https://www.hotelfarmona.pl/"}}, {"type": "node", "id": 2415577961, "lat": 50.065344, "lon": 19.9171282, "tags": {"email": "recepcja@hotel-polonez.pl", "name": "Hotel \"Polonez\"", "phone": "+48 12 292 8294", "rooms": "27", "stars": "3", "tourism": "hotel", "website": "https://www.hotelpolonez.pl/", "wikidata": "Q111858998"}}, {"type": "node", "id": 2416678242, "lat": 50.0438901, "lon": 19.9840784}, {"type": "node", "id": 2417508371, "lat": 50.0800008, "lon": 19.9487401}, {"type": "node", "id": 2417508473, "lat": 50.0800244, "lon": 19.9486626}, {"type": "node", "id": 2417508514, "lat": 50.080033, "lon": 19.9486334}, {"type": "node", "id": 2417508522, "lat": 50.0800374, "lon": 19.9486721}, {"type": "node", "id": 2417508540, "lat": 50.0800463, "lon": 19.9486432}, {"type": "node", "id": 2417508550, "lat": 50.0800561, "lon": 19.948557}, {"type": "node", "id": 2417508602, "lat": 50.0800715, "lon": 19.9485679}, {"type": "node", "id": 2417508705, "lat": 50.0801085, "lon": 19.9488164}, {"type": "node", "id": 2417508877, "lat": 50.0801641, "lon": 19.9486326}, {"type": "node", "id": 2417691008, "lat": 50.0196624, "lon": 19.824365}, {"type": "node", "id": 2417691042, "lat": 50.0197206, "lon": 19.8245141}, {"type": "node", "id": 2417691173, "lat": 50.0198204, "lon": 19.8244163}, {"type": "node", "id": 2417691233, "lat": 50.0198772, "lon": 19.8247315}, {"type": "node", "id": 2417691277, "lat": 50.0199142, "lon": 19.8241197}, {"type": "node", "id": 2417691334, "lat": 50.0199281, "lon": 19.8246826}, {"type": "node", "id": 2417691349, "lat": 50.0199369, "lon": 19.8248799}, {"type": "node", "id": 2417691353, "lat": 50.0199439, "lon": 19.824296}, {"type": "node", "id": 2417691397, "lat": 50.0199737, "lon": 19.8242672}, {"type": "node", "id": 2417691433, "lat": 50.0199892, "lon": 19.8244078}, {"type": "node", "id": 2417691453, "lat": 50.0200072, "lon": 19.8244506}, {"type": "node", "id": 2417691480, "lat": 50.0200517, "lon": 19.8245615}, {"type": "node", "id": 2417691507, "lat": 50.0200816, "lon": 19.8245334}, {"type": "node", "id": 2417691589, "lat": 50.0201415, "lon": 19.824682}, {"type": "node", "id": 2417723866, "lat": 50.0486783, "lon": 19.9246738}, {"type": "node", "id": 2417723877, "lat": 50.0486887, "lon": 19.9245199}, {"type": "node", "id": 2417724071, "lat": 50.0487882, "lon": 19.9246917}, {"type": "node", "id": 2417724122, "lat": 50.0487986, "lon": 19.9245378}, {"type": "node", "id": 2417727660, "lat": 50.0518025, "lon": 19.9315539}, {"type": "node", "id": 2417727666, "lat": 50.0518159, "lon": 19.9316039}, {"type": "node", "id": 2417727668, "lat": 50.0518183, "lon": 19.931362}, {"type": "node", "id": 2417727669, "lat": 50.0518187, "lon": 19.9314401}, {"type": "node", "id": 2417727670, "lat": 50.0518188, "lon": 19.9315279}, {"type": "node", "id": 2417727671, "lat": 50.051819, "lon": 19.9315417}, {"type": "node", "id": 2417727699, "lat": 50.0518551, "lon": 19.9313586}, {"type": "node", "id": 2417727794, "lat": 50.051938, "lon": 19.9313508}, {"type": "node", "id": 2417727832, "lat": 50.0519916, "lon": 19.931452}, {"type": "node", "id": 2417727834, "lat": 50.0519996, "lon": 19.9314832}, {"type": "node", "id": 2417727835, "lat": 50.0520034, "lon": 19.9313423}, {"type": "node", "id": 2417727836, "lat": 50.052009, "lon": 19.9314405}, {"type": "node", "id": 2417727902, "lat": 50.0521332, "lon": 19.9301901}, {"type": "node", "id": 2417727931, "lat": 50.0521659, "lon": 19.9303345}, {"type": "node", "id": 2417727932, "lat": 50.0521672, "lon": 19.9303397}, {"type": "node", "id": 2417727935, "lat": 50.0521689, "lon": 19.9303327}, {"type": "node", "id": 2417728015, "lat": 50.0522161, "lon": 19.9303116}, {"type": "node", "id": 2417728021, "lat": 50.0522169, "lon": 19.9303153}, {"type": "node", "id": 2417728107, "lat": 50.0522536, "lon": 19.9302898}, {"type": "node", "id": 2417728109, "lat": 50.0522547, "lon": 19.9302937}, {"type": "node", "id": 2417728123, "lat": 50.0522589, "lon": 19.930119}, {"type": "node", "id": 2417728201, "lat": 50.0522956, "lon": 19.9302656}, {"type": "node", "id": 2423198639, "lat": 50.0579707, "lon": 19.933115}, {"type": "node", "id": 2423198640, "lat": 50.0580212, "lon": 19.9330927}, {"type": "node", "id": 2423198641, "lat": 50.0582676, "lon": 19.9333069}, {"type": "node", "id": 2423198642, "lat": 50.0582682, "lon": 19.933313}, {"type": "node", "id": 2423198643, "lat": 50.0583863, "lon": 19.9332403}, {"type": "node", "id": 2423198644, "lat": 50.0583902, "lon": 19.9332558}, {"type": "node", "id": 2423198646, "lat": 50.0584456, "lon": 19.9327259}, {"type": "node", "id": 2423198647, "lat": 50.0584589, "lon": 19.9327101}, {"type": "node", "id": 2423264126, "lat": 50.0684378, "lon": 19.9373858, "tags": {"addr:city": "Krak\u00f3w", "addr:housenumber": "27", "addr:postcode": "31-141", "addr:street": "Krowoderska", "name": "Art Mont", "tourism": "guest_house", "website": "http://www.art-mont.com/", "wikidata": "Q112000975"}}, {"type": "node", "id": 2423264139, "lat": 50.0686969, "lon": 19.9373359, "tags": {"addr:city": "Krak\u00f3w", "addr:housenumber": "31", "addr:postcode": "31-141", "addr:street": "Krowoderska", "check_date": "2024-08-17", "guest_house": "hostel", "name": "Lorf Hostel&Coffee", "tourism": "hostel", "website": "https://lorf.pl/"}}, {"type": "node", "id": 2429269441, "lat": 50.0671266, "lon": 19.9381488, "tags": {"addr:city": "Krak\u00f3w", "addr:housenumber": "9", "addr:postcode": "31-141", "addr:street": "Krowoderska", "email": "info@loungeapartments.com", "internet_access": "wlan", "internet_access:fee": "no", "name": "Lounge Appartements", "phone": "+48 510 283 717", "tourism": "guest_house", "website": "http://www.loungeapartments.com/"}}, {"type": "node", "id": 2429305367, "lat": 50.0721312, "lon": 19.9320015, "tags": {"addr:city": "Krak\u00f3w", "addr:country": "PL", "addr:housenumber": "70", "addr:postcode": "31-158", "addr:street": "Krowoderska", "internet_access": "yes", "name": "Aparthotel Astor", "tourism": "hotel", "website": "https://aparthotelastor.pl/"}}, {"type": "node", "id": 2429305374, "lat": 50.0725834, "lon": 19.9322315, "tags": {"addr:city": "Krak\u00f3w", "addr:country": "PL", "addr:housenumber": "29", "addr:postcode": "31-159", "addr:street": "Aleja Juliusza S\u0142owackiego", "email": "redcarpethostel@gmail.com", "internet_access": "wlan", "internet_access:fee": "no", "name": "Red Carpet Hostel", "phone": "+48 733 045 722", "rooms": "40", "smoking": "dedicated", "tourism": "hostel", "website": "http://www.redcarpethostel.pl"}}, {"type": "node", "id": 2429651484, "lat": 50.0519861, "lon": 19.9487074, "tags": {"name": "Ester", "phone": "+48 12 4291188", "source": "survey", "stars": "4", "tourism": "hotel", "website": "http://www.hotel-ester.krakow.pl", "wheelchair": "no", "wikidata": "Q111401106"}}, {"type": "node", "id": 2429662819, "lat": 50.0657957, "lon": 19.9280133, "tags": {"name": "Crystal Suites", "tourism": "hotel"}}, {"type": "node", "id": 2429663250, "lat": 50.0552928, "lon": 19.9328769, "tags": {"addr:city": "Krak\u00f3w", "addr:housenumber": "22", "addr:postcode": "31-101", "addr:street": "Plac Na Groblach", "internet_access": "wlan", "internet_access:fee": "no", "name": "Hotel pod Wawelem", "rooms": "48", "tourism": "hotel", "wikidata": "Q111401092"}}, {"type": "node", "id": 2429663428, "lat": 50.0582644, "lon": 19.9392938, "tags": {"addr:city": "Krak\u00f3w", "addr:housenumber": "22", "addr:street": "Poselska", "name": "Wawel", "stars": "3", "tourism": "hotel", "website": "http://www.hotelwawel.pl/"}}, {"type": "node", "id": 2443511334, "lat": 50.0658827, "lon": 19.9454237, "tags": {"amenity": "parking_entrance", "lit": "yes", "maxheight": "2.2", "parking": "underground", "supervised": "yes"}}, {"type": "node", "id": 2443511531, "lat": 50.0674881, "lon": 19.9441432}, {"type": "node", "id": 2443511533, "lat": 50.0674884, "lon": 19.9441933}, {"type": "node", "id": 2443511549, "lat": 50.0675178, "lon": 19.9441527}, {"type": "node", "id": 2443511551, "lat": 50.0675187, "lon": 19.9442015}, {"type": "node", "id": 2451005716, "lat": 50.0813893, "lon": 19.9771191, "tags": {"addr:city": "Krak\u00f3w", "addr:housenumber": "91", "addr:postcode": "31-462", "addr:street": "Pilot\u00f3w", "internet_access": "wlan", "name": "Lawendowy Hostel", "phone": "+48 514 486 242", "rooms": "6", "tourism": "hostel", "website": "http://www.lawendowy-hostel.i-noclegi.pl/#home"}}, {"type": "node", "id": 2451994368, "lat": 50.0664342, "lon": 19.9340953, "tags": {"addr:city": "Krak\u00f3w", "addr:housenumber": "8", "addr:postcode": "31-140", "addr:street": "\u0141obzowska", "alt_name": "Golden Tulip Krakow City Center", "name": "Golden Tulip", "phone": "+48 12 4269990", "tourism": "hotel", "website": "https://krakow-city-center.goldentulip.com/"}}, {"type": "node", "id": 2453058323, "lat": 50.060943, "lon": 19.9319882, "tags": {"check_date": "2024-08-20", "internet_access": "wlan", "internet_access:fee": "no", "name": "Trzy Kafki", "tourism": "guest_house", "website": "https://trzykafki.pl/straszewskiego"}}, {"type": "node", "id": 2455705383, "lat": 50.0713011, "lon": 19.9372942, "tags": {"check_date": "2025-08-02", "name": "Old Time Hotel", "tourism": "hotel", "wheelchair": "no"}}, {"type": "node", "id": 2458455462, "lat": 50.0689739, "lon": 19.9450033}, {"type": "node", "id": 2458455463, "lat": 50.0689593, "lon": 19.9447642}, {"type": "node", "id": 2458455464, "lat": 50.0688378, "lon": 19.9447833}, {"type": "node", "id": 2458455466, "lat": 50.0686064, "lon": 19.9449321}, {"type": "node", "id": 2459882718, "lat": 50.0644771, "lon": 19.9461619, "tags": {"addr:housenumber": "5", "addr:street": "Lubicz", "name": "Hotel Europejski", "tourism": "hotel", "wikidata": "Q9294061", "wikipedia": "pl:Hotel Europejski w Krakowie"}}, {"type": "node", "id": 2463222943, "lat": 50.0616157, "lon": 19.9421127}, {"type": "node", "id": 2463222952, "lat": 50.0616642, "lon": 19.9424155}, {"type": "node", "id": 2497531100, "lat": 50.0729115, "lon": 19.931105, "tags": {"addr:city": "Krak\u00f3w", "addr:housenumber": "3a", "addr:postcode": "30-019", "addr:street": "Mazowiecka", "check_date": "2025-05-18", "email": "hostel@hosteldeco.pl", "internet_access": "wlan", "name": "Hostel Deco", "phone": "+48 12 6310745", "tourism": "hostel", "website": "http://www.hosteldeco.pl/", "wheelchair": "no", "wikidata": "Q111133363"}}, {"type": "node", "id": 2502016110, "lat": 50.0646595, "lon": 19.9405426}, {"type": "node", "id": 2502016111, "lat": 50.0646793, "lon": 19.9406853}, {"type": "node", "id": 2502016112, "lat": 50.0646865, "lon": 19.9405408}, {"type": "node", "id": 2509355520, "lat": 50.0495644, "lon": 19.9439607}, {"type": "node", "id": 2519989667, "lat": 50.0699724, "lon": 19.9375309, "tags": {"addr:city": "Krak\u00f3w", "addr:country": "PL", "addr:housenumber": "35", "addr:postcode": "31-147", "addr:street": "D\u0142uga", "name": "Hotel Yarden", "tourism": "hotel"}}, {"type": "node", "id": 2584461260, "lat": 50.0577411, "lon": 19.9383678, "tags": {"addr:city": "Krak\u00f3w", "addr:housenumber": "44", "addr:postcode": "31-044", "addr:street": "Senacka", "check_date": "2025-03-02", "name": "Mint Apartment", "tourism": "apartment"}}, {"type": "node", "id": 2609119130, "lat": 50.0236752, "lon": 19.9697506, "tags": {"addr:city": "Krak\u00f3w", "addr:housenumber": "65", "addr:postcode": "30-646", "addr:street": "Malborska", "name": "Optima", "tourism": "hotel", "website": "https://www.krakow-optima.pl/"}}, {"type": "node", "id": 2611470227, "lat": 50.0699388, "lon": 19.937035, "tags": {"name": "Abella Guest Rooms & Apartments", "tourism": "hotel"}}, {"type": "node", "id": 2611470230, "lat": 50.0681892, "lon": 19.9383205, "tags": {"name": "Aparthotel Pergamin", "tourism": "hotel", "wikidata": "Q111401052"}}, {"type": "node", "id": 2611470235, "lat": 50.0675017, "lon": 19.9395373, "tags": {"addr:city": "Krak\u00f3w", "addr:housenumber": "7", "addr:postcode": "31-149", "addr:street": "Krzywa", "name": "Atrium Hotel", "stars": "3", "tourism": "hotel", "website": "http://www.hotelatrium.com.pl", "wikidata": "Q111401054"}}, {"type": "node", "id": 2611470246, "lat": 50.0695654, "lon": 19.9387456, "tags": {"addr:city": "Krak\u00f3w", "addr:housenumber": "3", "addr:postcode": "31-148", "addr:street": "Zygmunta Wr\u00f3blewskiego", "name": "Football Corner Hostel", "tourism": "hostel", "website": "http://footballcorner.com.pl"}}, {"type": "node", "id": 2611470252, "lat": 50.0702248, "lon": 19.9371671, "tags": {"name": "Zulian", "tourism": "hostel", "wheelchair": "no"}}, {"type": "node", "id": 2611470253, "lat": 50.0700343, "lon": 19.9388874, "tags": {"addr:city": "Krak\u00f3w", "addr:country": "PL", "addr:housenumber": "9", "addr:postcode": "31-152", "addr:street": "P\u0119dzich\u00f3w", "name": "Dizzy Daisy Downtown Hostel", "opening_hours": "24/7", "phone": "+48 12 292 01 71", "tourism": "hostel", "website": "https://www.krakowhostel.pl/"}}, {"type": "node", "id": 2611470258, "lat": 50.0691625, "lon": 19.9381861, "tags": {"internet_access": "yes", "name": "Kosmopolita Pokoje Go\u015bcinne", "tourism": "guest_house"}}, {"type": "node", "id": 2628685542, "lat": 50.0684827, "lon": 19.9392456, "tags": {"addr:city": "Krak\u00f3w", "addr:housenumber": "6", "addr:postcode": "31-150", "addr:street": "\u015awi\u0119tego Filipa", "name": "Hostel Kolejowego Towarzystwa Kultury", "tourism": "guest_house", "website": "http://www.ktkdkk.pl/index.php?action=noclegi"}}, {"type": "node", "id": 2628685547, "lat": 50.0665888, "lon": 19.9401897, "tags": {"name": "Mosquito Hostel", "tourism": "hostel", "website": "https://mosquitohostel.com/"}}, {"type": "node", "id": 2638505708, "lat": 50.067138, "lon": 19.9431302, "tags": {"addr:city": "Krak\u00f3w", "addr:housenumber": "8", "addr:postcode": "31-157", "addr:street": "Plac Jana Matejki", "alt_name": "Hotel Matejko", "name": "Matejko", "phone": "+48 12 422 47 37", "phone:restaurant": "+48 12 421 21 22", "tourism": "hotel", "website": "http://www.matejkohotel.pl/", "wikidata": "Q111401059"}}, {"type": "node", "id": 2639071662, "lat": 50.0603309, "lon": 19.837484, "tags": {"addr:city": "Krak\u00f3w", "addr:housenumber": "38", "addr:postcode": "30-240", "addr:street": "Zakamycze", "name": "Villa Zakamycze", "phone": "+48 12 425 28 26", "smoking": "outside", "tourism": "hotel", "website": "http://villazakamycze.pl", "wheelchair": "limited"}}, {"type": "node", "id": 2642325798, "lat": 50.0657847, "lon": 19.9151919, "tags": {"entrance": "staircase"}}, {"type": "node", "id": 2678736640, "lat": 50.0522635, "lon": 19.92837, "tags": {"addr:housenumber": "2", "addr:postcode": "30-307", "addr:street": "Barska", "email": "benefis@hotelbenefis.pl", "name": "Benefis Boutique Hotel", "phone": "+48122520720", "tourism": "hotel", "website": "https://www.hotelbenefis.pl/"}}, {"type": "node", "id": 2679303995, "lat": 50.0336647, "lon": 19.9368821, "tags": {"name": "Hotel Galicya", "stars": "3", "tourism": "hotel", "website": "https://www.hotelgalicya.pl/", "wikidata": "Q111859070"}}, {"type": "node", "id": 2710145220, "lat": 50.0556987, "lon": 19.9313589, "tags": {"man_made": "surveillance"}}, {"type": "node", "id": 2765968540, "lat": 50.0910988, "lon": 19.9602894}, {"type": "node", "id": 2766039089, "lat": 50.0198157, "lon": 19.9274516, "tags": {"addr:city": "Krak\u00f3w", "addr:housenumber": "7b", "addr:street": "J\u00f3zefa Montwi\u0142\u0142a-Mireckiego", "name": "Trans-Expres", "source:addr": "EMUiA (emuia.gugik.gov.pl)", "tourism": "guest_house"}}, {"type": "node", "id": 2800546108, "lat": 50.0683082, "lon": 19.9374644, "tags": {"addr:city": "Krak\u00f3w", "addr:housenumber": "25", "addr:postcode": "31-141", "addr:street": "Krowoderska", "name": "City Moon Apartment", "operator": "Cracow City Service", "smoking": "no", "tourism": "apartment", "website": "https://www.booking.com/hotel/pl/city-apartment.html"}}, {"type": "node", "id": 2800551828, "lat": 50.0682786, "lon": 19.9382223, "tags": {"addr:city": "Krak\u00f3w", "addr:housenumber": "28", "addr:postcode": "31-147", "addr:street": "D\u0142uga", "name": "Cracow Elite Suites", "operator": "Cracow City Service", "smoking": "outside", "tourism": "apartment", "website": "https://www.booking.com/hotel/pl/palace-apartments-krakow-dluga.pl.html"}}, {"type": "node", "id": 2801050372, "lat": 50.0643243, "lon": 19.9363055, "tags": {"addr:city": "Krak\u00f3w", "addr:housenumber": "7", "addr:postcode": "31-011", "addr:street": "Plac Szczepa\u0144ski", "name": "Globtroter", "phone": "+48 12 4224123", "tourism": "guest_house", "website": "https://www.globtroter-krakow.com/"}}, {"type": "node", "id": 2820055365, "lat": 50.060509, "lon": 19.9220835, "tags": {"entrance": "yes"}}, {"type": "node", "id": 2881526948, "lat": 50.0597127, "lon": 19.945688, "tags": {"contact:website": "http://party.gregtomhostel.com/", "name": "Greg&Tom Party Hostel", "tourism": "hostel", "wikidata": "Q111137574"}}, {"type": "node", "id": 2896429661, "lat": 50.0671085, "lon": 19.8840855, "tags": {"check_date": "2024-07-13", "email": "bed.and.breakfast@krakow.home.pl", "name": "B&B NAD RUDAW\u0104", "phone": "(12)425 27 26", "tourism": "guest_house"}}, {"type": "node", "id": 2896432499, "lat": 50.0506828, "lon": 19.9266326, "tags": {"name": "U Pana Cogito", "tourism": "guest_house", "wikidata": "Q112001028"}}, {"type": "node", "id": 2896436068, "lat": 50.0895615, "lon": 19.9498369}, {"type": "node", "id": 2920064751, "lat": 50.0522222, "lon": 19.9171666, "tags": {"addr:city": "Krak\u00f3w", "addr:housenumber": "3", "addr:postcode": "30-114", "addr:street": "Flisacka", "check_date": "2025-05-10", "name": "Niebieski Art Hotel & Spa", "tourism": "hotel", "wikidata": "Q111401095"}}, {"type": "node", "id": 2927004451, "lat": 50.0709433, "lon": 19.9463211, "tags": {"access": "customers", "amenity": "parking_entrance", "maxheight": "1.9", "parking": "underground"}}, {"type": "node", "id": 2942715421, "lat": 50.0799485, "lon": 19.9492336, "tags": {"name": "Hotel Monika", "tourism": "hotel", "website": "http://www.hotelmonika.pl", "wheelchair": "no"}}, {"type": "node", "id": 2969266939, "lat": 50.0258699, "lon": 19.9182182}, {"type": "node", "id": 2969266940, "lat": 50.0258834, "lon": 19.9186098}, {"type": "node", "id": 2969266941, "lat": 50.025885, "lon": 19.918602}, {"type": "node", "id": 2969266942, "lat": 50.0258937, "lon": 19.9184421}, {"type": "node", "id": 2969266943, "lat": 50.0258999, "lon": 19.9184705}, {"type": "node", "id": 2969266944, "lat": 50.0259021, "lon": 19.9182838}, {"type": "node", "id": 2969290216, "lat": 50.0255976, "lon": 19.918514}, {"type": "node", "id": 2969290217, "lat": 50.0256102, "lon": 19.9185149}, {"type": "node", "id": 2969290218, "lat": 50.025656, "lon": 19.9183006}, {"type": "node", "id": 2969290219, "lat": 50.0259244, "lon": 19.9185301}, {"type": "node", "id": 2969290220, "lat": 50.025926, "lon": 19.9185921}, {"type": "node", "id": 2969294069, "lat": 50.0258895, "lon": 19.9183749}, {"type": "node", "id": 2969295126, "lat": 50.0258696, "lon": 19.9182092}, {"type": "node", "id": 2969296914, "lat": 50.0255918, "lon": 19.9183594}, {"type": "node", "id": 2969296915, "lat": 50.0256036, "lon": 19.9183615}, {"type": "node", "id": 2969296916, "lat": 50.0256552, "lon": 19.9183233}, {"type": "node", "id": 2969296917, "lat": 50.0258103, "lon": 19.9182155}, {"type": "node", "id": 2969296918, "lat": 50.0258105, "lon": 19.918225}, {"type": "node", "id": 2969296919, "lat": 50.0258304, "lon": 19.9186072}, {"type": "node", "id": 2969296920, "lat": 50.0258304, "lon": 19.9186166}, {"type": "node", "id": 2969296921, "lat": 50.0259129, "lon": 19.9182851}, {"type": "node", "id": 2969296922, "lat": 50.025913, "lon": 19.9185305}, {"type": "node", "id": 2969297009, "lat": 50.0255896, "lon": 19.9184393}, {"type": "node", "id": 2971980825, "lat": 50.0475742, "lon": 19.9524887}, {"type": "node", "id": 2971980827, "lat": 50.0475828, "lon": 19.9525209}, {"type": "node", "id": 2971981244, "lat": 50.047732, "lon": 19.9524768}, {"type": "node", "id": 2971981245, "lat": 50.0477343, "lon": 19.9524852}, {"type": "node", "id": 2971981246, "lat": 50.0477363, "lon": 19.9524729}, {"type": "node", "id": 2971981247, "lat": 50.0477457, "lon": 19.9533646}, {"type": "node", "id": 2971981248, "lat": 50.0477599, "lon": 19.9533558}, {"type": "node", "id": 2971981249, "lat": 50.0477664, "lon": 19.9525837}, {"type": "node", "id": 2971981250, "lat": 50.0477989, "lon": 19.9525045}, {"type": "node", "id": 2971981251, "lat": 50.0478117, "lon": 19.9525563}, {"type": "node", "id": 2971981252, "lat": 50.0479409, "lon": 19.952999}, {"type": "node", "id": 2971981253, "lat": 50.0480165, "lon": 19.9527954}, {"type": "node", "id": 2971981254, "lat": 50.0480224, "lon": 19.952788}, {"type": "node", "id": 2971981255, "lat": 50.0480446, "lon": 19.9531006}, {"type": "node", "id": 2971981256, "lat": 50.0480851, "lon": 19.9531003}, {"type": "node", "id": 2971981257, "lat": 50.0480908, "lon": 19.9531301}, {"type": "node", "id": 2971981258, "lat": 50.0480935, "lon": 19.9531227}, {"type": "node", "id": 2971981259, "lat": 50.0481478, "lon": 19.9530589}, {"type": "node", "id": 2971981260, "lat": 50.0481583, "lon": 19.9530446}, {"type": "node", "id": 2975857163, "lat": 50.049553, "lon": 19.9433757}, {"type": "node", "id": 2975857169, "lat": 50.0496054, "lon": 19.9439449}, {"type": "node", "id": 2975857170, "lat": 50.0496119, "lon": 19.9439494}, {"type": "node", "id": 2975857171, "lat": 50.0496194, "lon": 19.9440866}, {"type": "node", "id": 2975857172, "lat": 50.0496275, "lon": 19.9440464}, {"type": "node", "id": 2975857173, "lat": 50.0496857, "lon": 19.9440414}, {"type": "node", "id": 2975879114, "lat": 50.049463, "lon": 19.9434164}, {"type": "node", "id": 2975879117, "lat": 50.0494933, "lon": 19.9431059}, {"type": "node", "id": 2975879118, "lat": 50.0494934, "lon": 19.9431066}, {"type": "node", "id": 2975879119, "lat": 50.0494959, "lon": 19.9431045}, {"type": "node", "id": 2975879121, "lat": 50.0494998, "lon": 19.9431215}, {"type": "node", "id": 2975879122, "lat": 50.0495028, "lon": 19.9433906}, {"type": "node", "id": 2975879123, "lat": 50.0495049, "lon": 19.943385}, {"type": "node", "id": 2975879128, "lat": 50.0495115, "lon": 19.9431749}, {"type": "node", "id": 2975879130, "lat": 50.0495126, "lon": 19.9431743}, {"type": "node", "id": 2975879131, "lat": 50.0495169, "lon": 19.9433942}, {"type": "node", "id": 2975879645, "lat": 50.0494588, "lon": 19.94341}, {"type": "node", "id": 2975879646, "lat": 50.0494606, "lon": 19.943418}, {"type": "node", "id": 2975879647, "lat": 50.0494609, "lon": 19.943409}, {"type": "node", "id": 2975879651, "lat": 50.0495296, "lon": 19.9432599}, {"type": "node", "id": 2975879663, "lat": 50.0496163, "lon": 19.9440671}, {"type": "node", "id": 2975879664, "lat": 50.0496219, "lon": 19.9440652}, {"type": "node", "id": 2975880035, "lat": 50.0495329, "lon": 19.9432578}, {"type": "node", "id": 2975880133, "lat": 50.0496884, "lon": 19.9440567}, {"type": "node", "id": 2975880134, "lat": 50.0496939, "lon": 19.9440382}, {"type": "node", "id": 2975880135, "lat": 50.0497281, "lon": 19.9442408}, {"type": "node", "id": 2976227458, "lat": 50.0526612, "lon": 19.9485422}, {"type": "node", "id": 2976227459, "lat": 50.0526637, "lon": 19.9486004}, {"type": "node", "id": 2976228611, "lat": 50.0526082, "lon": 19.9486279}, {"type": "node", "id": 2976228612, "lat": 50.0526133, "lon": 19.9486488}, {"type": "node", "id": 2976228613, "lat": 50.0526197, "lon": 19.9486217}, {"type": "node", "id": 2976228614, "lat": 50.0526205, "lon": 19.9486251}, {"type": "node", "id": 2976228615, "lat": 50.0526529, "lon": 19.9485546}, {"type": "node", "id": 2976228616, "lat": 50.0526589, "lon": 19.9483072}, {"type": "node", "id": 2976228617, "lat": 50.0526941, "lon": 19.9484832}, {"type": "node", "id": 2976228619, "lat": 50.0527226, "lon": 19.9486163}, {"type": "node", "id": 2976228622, "lat": 50.0527321, "lon": 19.9486917}, {"type": "node", "id": 2976229478, "lat": 50.0525582, "lon": 19.9483493}, {"type": "node", "id": 2976229482, "lat": 50.0525964, "lon": 19.9485199}, {"type": "node", "id": 2976229504, "lat": 50.0526393, "lon": 19.9487549}, {"type": "node", "id": 2976229506, "lat": 50.0526496, "lon": 19.9484903}, {"type": "node", "id": 2976229507, "lat": 50.0526594, "lon": 19.9483091}, {"type": "node", "id": 2976666969, "lat": 50.0506803, "lon": 19.9489479}, {"type": "node", "id": 2976666979, "lat": 50.0518949, "lon": 19.9471265}, {"type": "node", "id": 2976666982, "lat": 50.0519109, "lon": 19.947118}, {"type": "node", "id": 2976666983, "lat": 50.0519159, "lon": 19.9471692}, {"type": "node", "id": 2976666984, "lat": 50.0519216, "lon": 19.9472673}, {"type": "node", "id": 2976667634, "lat": 50.0507971, "lon": 19.9489081}, {"type": "node", "id": 2976668987, "lat": 50.0517795, "lon": 19.9471835}, {"type": "node", "id": 2976668995, "lat": 50.0518075, "lon": 19.9473193}, {"type": "node", "id": 2976669004, "lat": 50.0518287, "lon": 19.9474144}, {"type": "node", "id": 2976669017, "lat": 50.0519055, "lon": 19.9473928}, {"type": "node", "id": 2976669019, "lat": 50.0519046, "lon": 19.9471732}, {"type": "node", "id": 2976669021, "lat": 50.0519135, "lon": 19.9474643}, {"type": "node", "id": 2976669025, "lat": 50.0519407, "lon": 19.9471037}, {"type": "node", "id": 2976669028, "lat": 50.0519589, "lon": 19.9473764}, {"type": "node", "id": 2976669086, "lat": 50.0519111, "lon": 19.9471177}, {"type": "node", "id": 2976669088, "lat": 50.0519219, "lon": 19.9471742}, {"type": "node", "id": 2976669091, "lat": 50.0519477, "lon": 19.9473146}, {"type": "node", "id": 2976669328, "lat": 50.0519315, "lon": 19.9473213}, {"type": "node", "id": 2976669331, "lat": 50.0519507, "lon": 19.947162}, {"type": "node", "id": 2977054045, "lat": 50.0510129, "lon": 19.9508374}, {"type": "node", "id": 2977132383, "lat": 50.05195, "lon": 19.9471623}, {"type": "node", "id": 2977135451, "lat": 50.0519208, "lon": 19.947263}, {"type": "node", "id": 2977569883, "lat": 50.0529774, "lon": 19.9482424, "tags": {"name": "Dom Casimi", "phone": "+48 22 4902020", "stars": "2", "tourism": "hotel"}}, {"type": "node", "id": 2977569885, "lat": 50.0531712, "lon": 19.9481428, "tags": {"name": "Hotel Klezmer-Hois", "tourism": "hotel"}}, {"type": "node", "id": 2977683982, "lat": 50.0539233, "lon": 19.9476862}, {"type": "node", "id": 2977683986, "lat": 50.0539416, "lon": 19.9476776}, {"type": "node", "id": 2977683987, "lat": 50.0539417, "lon": 19.9479235}, {"type": "node", "id": 2977684503, "lat": 50.0538634, "lon": 19.947749}, {"type": "node", "id": 2977684658, "lat": 50.0539266, "lon": 19.9476936}, {"type": "node", "id": 2977684660, "lat": 50.0539383, "lon": 19.9476703}, {"type": "node", "id": 2977684786, "lat": 50.0539964, "lon": 19.9476079}, {"type": "node", "id": 2977684790, "lat": 50.0540012, "lon": 19.9476214}, {"type": "node", "id": 2977684818, "lat": 50.0540724, "lon": 19.947786}, {"type": "node", "id": 2977876765, "lat": 50.0538648, "lon": 19.9477476}, {"type": "node", "id": 2977944801, "lat": 50.088324, "lon": 19.9811714}, {"type": "node", "id": 2977944803, "lat": 50.0883397, "lon": 19.9812965}, {"type": "node", "id": 2979735075, "lat": 50.0497143, "lon": 19.9430072}, {"type": "node", "id": 2979735903, "lat": 50.0498995, "lon": 19.9440082}, {"type": "node", "id": 2979735907, "lat": 50.0499089, "lon": 19.9440586}, {"type": "node", "id": 2980065652, "lat": 50.0496882, "lon": 19.9440404}, {"type": "node", "id": 2981560278, "lat": 50.0506145, "lon": 19.9436195}, {"type": "node", "id": 2981560279, "lat": 50.0506386, "lon": 19.9437315}, {"type": "node", "id": 2981563690, "lat": 50.0504823, "lon": 19.9436188}, {"type": "node", "id": 2981563698, "lat": 50.0505456, "lon": 19.9439105}, {"type": "node", "id": 2981563995, "lat": 50.0505518, "lon": 19.9439076}, {"type": "node", "id": 2981563996, "lat": 50.0505521, "lon": 19.9439091}, {"type": "node", "id": 2981563999, "lat": 50.0505724, "lon": 19.943899}, {"type": "node", "id": 2981564000, "lat": 50.0505728, "lon": 19.9439011}, {"type": "node", "id": 2981564007, "lat": 50.0506514, "lon": 19.9436002}, {"type": "node", "id": 2981564009, "lat": 50.0506617, "lon": 19.9438641}, {"type": "node", "id": 2981564010, "lat": 50.0506626, "lon": 19.9438696}, {"type": "node", "id": 2981564011, "lat": 50.0506655, "lon": 19.9435255}, {"type": "node", "id": 2981564014, "lat": 50.0506791, "lon": 19.9435853}, {"type": "node", "id": 2981564017, "lat": 50.0507043, "lon": 19.9437042}, {"type": "node", "id": 2981564025, "lat": 50.0507296, "lon": 19.9438427, "tags": {"entrance": "yes"}}, {"type": "node", "id": 2981564030, "lat": 50.0507327, "lon": 19.9436924}, {"type": "node", "id": 2981564040, "lat": 50.0506005, "lon": 19.9435633}, {"type": "node", "id": 2981564438, "lat": 50.0507603, "lon": 19.9438304}, {"type": "node", "id": 2981578468, "lat": 50.0506169, "lon": 19.9436183}, {"type": "node", "id": 2981578470, "lat": 50.050633, "lon": 19.9437051}, {"type": "node", "id": 2981578479, "lat": 50.0506666, "lon": 19.94353}, {"type": "node", "id": 2981578480, "lat": 50.0506669, "lon": 19.9437197}, {"type": "node", "id": 2981578481, "lat": 50.0506687, "lon": 19.9435394}, {"type": "node", "id": 2981578607, "lat": 50.0506372, "lon": 19.9437247}, {"type": "node", "id": 2981897039, "lat": 50.0509079, "lon": 19.9452101}, {"type": "node", "id": 2981898772, "lat": 50.0508401, "lon": 19.9452465}, {"type": "node", "id": 2983540782, "lat": 50.0520262, "lon": 19.943248}, {"type": "node", "id": 2983540785, "lat": 50.0520525, "lon": 19.9432552}, {"type": "node", "id": 2983541878, "lat": 50.0520758, "lon": 19.9432902}, {"type": "node", "id": 2983541879, "lat": 50.0520765, "lon": 19.943289}, {"type": "node", "id": 2983542202, "lat": 50.0520359, "lon": 19.9434858}, {"type": "node", "id": 2983543330, "lat": 50.0520308, "lon": 19.943461}, {"type": "node", "id": 2983543983, "lat": 50.0519409, "lon": 19.9435141}, {"type": "node", "id": 2983543984, "lat": 50.0519459, "lon": 19.9435107}, {"type": "node", "id": 2983544346, "lat": 50.0519906, "lon": 19.9432676}, {"type": "node", "id": 2983544347, "lat": 50.0519912, "lon": 19.9432697}, {"type": "node", "id": 2983544449, "lat": 50.0518966, "lon": 19.9433233}, {"type": "node", "id": 2983651280, "lat": 50.0511333, "lon": 19.9465244}, {"type": "node", "id": 2983651282, "lat": 50.0511376, "lon": 19.9461925}, {"type": "node", "id": 2983651283, "lat": 50.0511416, "lon": 19.946491}, {"type": "node", "id": 2983651290, "lat": 50.051164, "lon": 19.9463723}, {"type": "node", "id": 2983651296, "lat": 50.0511908, "lon": 19.9461667}, {"type": "node", "id": 2983651297, "lat": 50.0511919, "lon": 19.9461078}, {"type": "node", "id": 2983651299, "lat": 50.0512092, "lon": 19.9466616}, {"type": "node", "id": 2983651300, "lat": 50.0512143, "lon": 19.9464536}, {"type": "node", "id": 2983651301, "lat": 50.0512177, "lon": 19.9466252}, {"type": "node", "id": 2983651302, "lat": 50.0512197, "lon": 19.9467107}, {"type": "node", "id": 2983651303, "lat": 50.0512217, "lon": 19.9467199}, {"type": "node", "id": 2983651304, "lat": 50.0512239, "lon": 19.946654}, {"type": "node", "id": 2983652962, "lat": 50.0511749, "lon": 19.9461186}, {"type": "node", "id": 2983653262, "lat": 50.0512354, "lon": 19.9463394}, {"type": "node", "id": 2983653534, "lat": 50.0511778, "lon": 19.9467422}, {"type": "node", "id": 2983653633, "lat": 50.0511817, "lon": 19.9461527}, {"type": "node", "id": 2983653634, "lat": 50.0511874, "lon": 19.94615}, {"type": "node", "id": 2983653636, "lat": 50.0512423, "lon": 19.9466126}, {"type": "node", "id": 2983692130, "lat": 50.0539264, "lon": 19.9429997}, {"type": "node", "id": 2983692131, "lat": 50.0539272, "lon": 19.9429971}, {"type": "node", "id": 2983692132, "lat": 50.0539841, "lon": 19.9428194}, {"type": "node", "id": 2983693408, "lat": 50.0544086, "lon": 19.9433728}, {"type": "node", "id": 2983693411, "lat": 50.0544643, "lon": 19.943198}, {"type": "node", "id": 2983698935, "lat": 50.0544077, "lon": 19.9433752}, {"type": "node", "id": 2983699288, "lat": 50.0540064, "lon": 19.9427498}, {"type": "node", "id": 2983699289, "lat": 50.0540208, "lon": 19.942846}, {"type": "node", "id": 2983699290, "lat": 50.0540418, "lon": 19.9427765}, {"type": "node", "id": 2983699291, "lat": 50.054061, "lon": 19.942877},